學校代碼,學校名稱,lat,lng
23,國立雲林科技大學,23.6960596,120.5340433
1018,朝陽科技大學,24.069678,120.714829
1025,嘉南藥理大學,22.9209971,120.2253459
1061,中華科技大學,25.0336217,121.6099098
3002,臺北市立大學,25.0355926,121.5140027
44,國立體育大學,25.0351268,121.3839182
46,國立臺北護理健康大學,25.1175924,121.5210676
47,國立高雄餐旅大學,22.5632539,120.3723822
48,國立金門大學,24.4481499,118.322535
49,國立臺灣體育運動大學,24.1486798,120.6876707
50,國立臺中科技大學,24.1497433,120.6837712
1062,僑光科技大學,24.1895097,120.6430997
1063,育達科技大學,24.6509745,120.8422629
1064,美和科技大學,22.603895,120.560668
1065,吳鳳科技大學,23.5360276,120.4341554
1066,環球科技大學,23.6798529,120.5531411
1067,台灣首府大學,23.1930713,120.2684501
1068,中州科技大學,23.9576199,120.6040587
1069,修平科技大學,24.0953128,120.7138722
1003,東吳大學,25.094415,121.545748
24,國立屏東科技大學,22.6433454,120.6098266
25,國立臺北科技大學,25.0422329,121.5354974
28,國立臺北藝術大學,25.1325182,121.4696818
29,國立臺灣藝術大學,25.0058674,121.4475607
30,國立臺東大學,22.736571,121.067897
31,國立宜蘭大學,24.7462462,121.7477007
32,國立聯合大學,24.5458044,120.81232
1017,實踐大學,25.083982,121.5459518
1083,台北海洋科技大學,25.1921692,121.4267044
1084,亞東科技大學,24.995194,121.4531189
1125,中信金融管理學院,23.0637267,120.1629674
1148,大漢技術學院,24.0392272,121.6057039
1159,和春技術學院,22.6080409,120.4270968
1168,南亞技術學院,24.9369569,121.2516879
1182,蘭陽技術學院,24.864987,121.817719
1183,黎明技術學院,25.0662724,121.4210118
1185,經國管理暨健康學院,25.1500306,121.7277801
1032,明新科技大學,24.8641986,120.9906648
51,國立臺北商業大學,25.0418903,121.5256203
52,國立屏東大學,22.6659053,120.5048409
53,國立高雄科技大學,22.7556518,120.3320979
144,國立臺灣戲曲學院,25.0819234,121.586525
221,國立臺南護理專科學校,22.9956656,120.207567
222,國立臺東專科學校,22.7586954,121.1226973
1001,東海大學,24.1798677,120.604492
1002,輔仁大學,25.0334487,121.4334756
1019,高雄醫學大學,22.6452028,120.310411
1020,南華大學,29.7199489,-95.3422334
1021,真理大學,25.1751815,121.4344674
1022,大同大學,25.0671544,121.521804
1023,南臺科技大學,23.0254548,120.2264886
1024,崑山科技大學,22.9977586,120.2530937
33,國立虎尾科技大學,23.7026129,120.4294895
35,國立臺南藝術大學,23.1860115,120.3743165
36,國立臺南大學,22.9847814,120.2079978
37,國立臺北教育大學,25.023387,121.5453446
39,國立臺中教育大學,24.1436581,120.6718274
42,國立澎湖科技大學,23.5745775,119.5810053
43,國立勤益科技大學,24.1436055,120.7317181
1026,樹德科技大學,22.7638734,120.3761881
1027,慈濟大學,23.9928054,121.5912448
1028,臺北醫學大學,25.0253584,121.5616235
1029,中山醫學大學,24.122047,120.6511434
1030,龍華科技大學,25.0192933,121.4020546
1031,輔英科技大學,22.6026893,120.3896885
1053,元培醫事科技大學,24.776337,120.9428296
1033,長榮大學,22.904739,120.275107
1034,弘光科技大學,24.2172822,120.5807518
1035,中國醫藥大學,24.1560757,120.6803671
1036,健行科技大學,24.9472212,121.2291186
1037,正修科技大學,22.650984,120.3489274
1038,萬能科技大學,24.9902321,121.2321395
1039,玄奘大學,24.7743891,120.9434509
1004,中原大學,24.957537,121.2410215
1005,淡江大學,25.1740706,121.4473008
1006,中國文化大學,25.1359859,121.5389375
1007,逢甲大學,24.178824,120.6466926
1008,靜宜大學,24.2258027,120.5771913
1,國立政治大學,24.9861694,121.5771149
2,國立清華大學,24.7961217,120.9966699
3,國立臺灣大學,25.0173405,121.5397518
4,國立臺灣師範大學,25.0261538,121.5274867
1054,景文科技大學,24.952911,121.509176
1055,中華醫事科技大學,22.9608918,120.2436327
1056,東南科技大學,25.0034002,121.6044633
1057,德明財經科技大學,25.0865509,121.5654923
1058,明道大學,23.8681411,120.4949742
1060,南開科技大學,23.9792331,120.696843
1070,長庚科技大學,25.0309866,121.3901211
1071,臺北城市科技大學,25.133617,121.468879
1072,敏實科技大學,24.7775247,121.0900718
1073,醒吾科技大學,25.0803455,121.3976927
1075,文藻外語大學,22.6703488,120.3191403
1076,華夏科技大學,24.9812421,121.5074181
1077,慈濟科技大學,23.9966876,121.564793
1188,大同技術學院,23.469727,120.464865
1195,馬偕醫學院,25.254377,121.4950804
1196,法鼓文理學院,25.245412,121.6169569
1282,馬偕醫護管理專科學校,25.1222891,121.4644703
1283,仁德醫護管理專科學校,24.622188,120.780827
1284,樹人醫護管理專科學校,22.8834931,120.2613927
1285,慈惠醫護管理專科學校,22.486071,120.4894273
1286,耕莘健康管理專科學校,24.9770572,121.5368906
1287,敏惠醫護管理專科學校,23.2799158,120.3287761
1289,育英醫護管理專科學校,22.6500691,120.3332807
1291,聖母醫護管理專科學校,24.6646906,121.7022666
1292,新生醫護管理專科學校,24.8319445,121.2086202
1293,崇仁醫護管理專科學校,23.478052,120.483115
1078,致理科技大學,25.0210986,121.4651279
1079,康寧大學,23.0590248,120.1542518
1080,宏國德霖科技大學,24.972325,121.4557677
1081,東方設計大學,22.880716,120.2453799
1082,崇右影藝科技大學,25.1336644,121.7550685
12,國立臺灣海洋大學,25.1505447,121.7757756
13,國立中正大學,23.5633761,120.4728831
14,國立高雄師範大學,22.6236618,120.3210567
5,國立成功大學,22.9988416,120.2195148
6,國立中興大學,24.123552,120.675326
7,國立陽明交通大學,24.7868862,120.9974969
8,國立中央大學,24.9679966,121.1922029
9,國立中山大學,22.628388,120.264737
1040,建國科技大學,24.0662822,120.549876
1041,明志科技大學,25.0410187,121.4222651
1042,高苑科技大學,22.8409222,120.2646319
1043,大仁科技大學,22.726916,120.542329
1044,聖約翰科技大學,25.2273378,121.4510391
1045,嶺東科技大學,24.137825,120.609567
1046,中國科技大學,24.9991431,121.5553747
1009,長庚大學,25.0334479,121.3874856
1010,元智大學,24.9701632,121.2674614
1011,中華大學,24.7571306,120.9522639
1012,大葉大學,23.9997509,120.5956723
1013,華梵大學,24.9808468,121.6910371
1014,義守大學,22.7271723,120.4058219
1015,世新大學,24.988664,121.543984
1016,銘傳大學,24.9844926,121.3423688
1047,中臺科技大學,24.173734,120.7351321
1048,亞洲大學,24.046532,120.686421
1049,開南大學,25.0112224,121.2698598
1050,佛光大學,24.8164113,121.7236181
1051,台南應用科技大學,23.0387,120.2394972
1052,遠東科技大學,23.0646068,120.2943546
15,國立彰化師範大學,24.0812771,120.5587377
17,國立臺北大學,24.9438411,121.370802
18,國立嘉義大學,23.4681944,120.484174
19,國立高雄大學,22.7341433,120.2849143
20,國立東華大學,23.8975385,121.5418018
21,國立暨南國際大學,23.9511431,120.9306649
22,國立臺灣科技大學,25.0132583,121.5405609
400144,國立臺灣戲曲學院附設高職部,25.0819234,121.586525
140222,國立臺東專科學校附設高職部,22.7579117,121.1243815
10301,國立華僑高級中等學校,25.0075,121.4477778
11301,私立淡江高中,25.1762507,121.437164
11302,私立康橋高中,24.9120394,121.4958652
11306,私立金陵女中,25.04299,121.466942
11307,新北市裕德高級中等學校,24.9830118,121.4394801
11309,財團法人南山高中,25.0016594,121.5036507
11310,財團法人恆毅高中,25.0366541,121.4537324
11311,私立聖心女中,25.13562,121.449122
11312,私立崇義高中,25.077429,121.669969
11314,財團法人中華高中,24.975578,121.4374135
11315,私立東海高中,25.0647366,121.4788449
11316,私立格致高中,25.0738323,121.4886747
11317,私立醒吾高中,25.079564,121.395793
11318,私立徐匯高中,25.080107,121.480124
11322,新北市崇光高中,24.9718753,121.538946
11323,私立光仁高中,25.0183052,121.4764718
11324,私立竹林高中,24.9799565,121.5057743
11325,私立及人高中,24.966799,121.51489
11329,財團法人辭修高中,24.932696,121.407931
11330,新北市林口康橋國際高中,25.0741868,121.389928
11399,私立時雨高中,25.1095045,121.8552909
13303,市立泰山高中,25.057789,121.429729
13304,市立板橋高中,25.012041,121.4590137
13335,市立新店高中,24.975506,121.532082
13336,市立中和高中,24.994112,121.478471
13337,市立新莊高中,22.6813675,120.3175826
13338,市立新北高中,25.0874536,121.489796
13339,市立林口高中,25.0732029,121.3805242
14302,市立海山高中,25.0096689,121.4712073
14311,市立三重高中,25.054741,121.4914967
14315,市立永平高中,25.0105828,121.5083843
14322,市立樹林高中,24.9829633,121.4223883
14326,市立明德高中,24.9038379,121.365725
14332,市立秀峰高中,25.0657829,121.6608704
14338,市立金山高中,25.224676,121.637008
14343,市立安康高中,24.9694528,121.5153
14347,市立雙溪高中,25.0349052,121.8632554
14348,市立石碇高中,25.0141303,121.6429468
14353,市立丹鳳高中,25.021049,121.416544
14356,市立清水高中,24.2652825,120.5740941
14357,市立三民高中,25.0868693,121.4737065
14362,市立錦和高中,24.992544,121.491084
14363,市立光復高中,25.0167462,121.4822165
14364,市立竹圍高中,25.1459534,121.461587
14381,市立北大高級中學,24.948248,121.3764596
14399,市立豐珠中學,25.0656443,121.9018436
20301,國立蘭陽女中,24.7453914,121.753373
20302,國立宜蘭高中,24.751424,121.7417203
20308,國立羅東高中,24.6807286,121.761905
21301,私立慧燈高中,24.777028,121.7155386
21310,私立中道高中,24.7597787,121.7937987
24322,縣立南澳高中,24.465902,121.801868
24325,縣立慈心華德福實中,24.6268113,121.795708
30305,國立中央大學附屬中壢高中,24.962072,121.211168
31301,桃園市懷恩高中,24.8481274,121.2453129
31309,桃園市育達高中,24.95191,121.209124
31310,私立六和高中,24.9453453,121.1858942
31311,桃園市復旦高中,24.948372,121.203082
31312,桃園市治平高中,24.9158677,121.1886835
31313,桃園市振聲高中,24.9905152,121.3022615
31317,私立光啟高中,25.0201005,121.4031147
31318,桃園市啟英高中,24.9750491,121.2357616
31319,桃園市清華高中,24.9816339,121.1083826
31320,桃園市新興高中,24.975174,121.271855
31323,私立至善高中,24.867158,121.284486
31324,桃園市大興高中,25.061988,121.192613
31326,私立大華高中,24.882732,121.1744393
33302,市立龍潭高中,24.8612862,121.2129579
33304,市立桃園高中,24.9994003,121.3273196
33306,市立武陵高中,24.987672,121.2857263
33316,市立楊梅高中,24.921386,121.148215
33325,市立陽明高中,25.0922121,121.5172424
33327,市立內壢高中,24.9779218,121.2558058
34306,市立南崁高中,25.0524424,121.2970629
34312,市立大溪高中,24.868745,121.2858825
34314,市立壽山高中,24.9945839,121.3412207
34319,市立平鎮高中,24.939725,121.21896
34332,市立觀音高中,25.0147432,121.1327739
34335,市立新屋高級中等學校,24.970544,121.1017254
34347,市立永豐高中,24.9749506,121.2701309
34348,市立羅浮高中,24.9936281,121.3009798
34399,市立大園國際高中,25.0211,121.2210422
40302,國立竹東高中,24.732995,121.088225
40304,國立關西高中,24.788416,121.1855991
40308,國立竹北高中,24.8369051,121.0041358
41303,私立義民高中,24.8391368,121.0040633
41305,私立忠信高中,24.881078,121.001876
41306,私立東泰高中,24.7115674,121.0983352
41307,私立仰德高中,24.8815898,121.0051968
44311,縣立六家高級中學,24.8210147,121.0318342
140301,國立臺東大學附屬體育高中,22.7644294,121.075238
140302,國立臺東女中,22.760901,121.15348
140303,國立臺東高中,22.7477668,121.1465661
141301,臺東縣均一高中,22.7703313,121.1261014
141307,私立育仁高中,22.77419,121.092785
144322,縣立蘭嶼高中,22.0498373,121.5118562
150303,國立花蓮高中,23.9867344,121.6258141
150309,國立玉里高中,23.345486,121.318262
151306,私立海星高中,24.0073437,121.613781
151307,私立四維高中,24.0003499,121.5914759
151312,財團法人慈濟大學附中,23.999868,121.5741826
154301,花蓮縣立體育高中,24.0031924,121.5837156
160302,國立馬公高中,23.5710333,119.5806143
170301,國立基隆女中,25.1286152,121.7591702
170302,國立基隆高中,25.1075761,121.7328491
171306,私立二信高中,25.143902,121.771516
173304,市立中山高中,22.728652,120.2927492
173307,市立暖暖高中,25.1081244,121.737743
173314,市立八斗高中,25.140237,121.7882919
180301,國立竹科實驗高級中等學校,24.777184,121.016432
180302,國立新竹女中,24.8047857,120.9755859
180309,國立新竹高中,24.795089,120.9804127
181305,私立光復高中,24.798387,120.994056
181306,私立曙光女中,24.811149,120.9728262
181307,私立磐石高中,24.8108193,120.9570734
181308,私立世界高中,24.7807043,121.0198068
183306,市立成德高中,24.7909191,120.953335
183307,市立香山高中,24.785165,120.930349
183313,市立建功高中,24.7978951,121.0023113
191301,私立東大附中,24.182282,120.6055347
191302,私立葳格高中,24.1785854,120.711852
191305,私立新民高中,24.1586929,120.685906
191308,私立宜寧高中,24.1938884,120.606577
191309,私立明德高中,24.120318,120.683671
191311,私立衛道高中,24.1830032,120.6750442
191313,私立曉明女中,24.168102,120.673388
191314,私立嶺東高中,24.138096,120.610281
191315,私立磊川華德福實驗教育學校,24.1804983,120.713242
193301,市立臺中女中,24.136043,120.677765
193302,市立臺中一中,24.1498345,120.6863244
193303,市立忠明高中,24.1589341,120.6636692
193313,市立西苑高中,24.186534,120.64181
193315,市立東山高中,24.1663557,120.712095
193316,市立惠文高中,24.1516147,120.6397871
194303,市立臺中二中,24.1529906,120.6749422
194315,市立文華高中,24.1702094,120.6599389
200302,國立嘉義女中,23.473657,120.450995
200303,國立嘉義高中,23.47709,120.4648722
201304,私立興華高中,23.4895018,120.4647954
201309,私立仁義高中,23.4594591,120.4865167
201310,私立嘉華高中,23.4835895,120.4767061
201312,私立輔仁高中,23.460557,120.456993
201313,私立宏仁女中,23.506283,120.445669
201314,私立立仁高中,23.4631749,120.4594794
210303,國立臺南二中,23.0055481,120.212765
210305,國立臺南一中,22.9942111,120.2158889
210306,國立臺南女中,22.9872458,120.2065307
210309,國立家齊高中,22.981624,120.200817
211301,私立長榮高中,22.9894128,120.2229561
211302,私立長榮女中,22.9911165,120.2211482
211304,財團法人聖功女中,23.014844,120.221297
211310,臺南市光華高中,22.988612,120.21739
171308,輔大聖心高中,25.1353145,121.7338675
211314,私立六信高中,22.9742224,120.202586
211315,私立瀛海高中,23.0350309,120.2113593
211317,臺南市崑山高中,23.0110042,120.2263303
211318,私立德光高中,22.9798586,120.2214007
211320,財團法人慈濟高中,23.999868,121.5741826
213303,市立南寧高中,22.935473,120.186614
213316,市立土城高中,23.0574603,120.1505744
313301,市立西松高中,25.0553554,121.5671134
313302,市立中崙高中,25.0487115,121.5611909
321399,臺北市私立協和祐德高級中學,25.04252,121.5835426
323301,市立松山高中,25.0434938,121.5654685
323302,市立永春高中,25.032802,121.5785567
330301,國立師大附中,25.0336592,121.5404218
331301,私立延平中學,25.0363216,121.5384679
331302,私立金甌女中,25.034768,121.5241819
331304,私立復興實驗高中,25.0394418,121.5484403
333301,市立和平高中,25.0196314,121.5491522
333304,市立芳和實中,25.0329636,121.5654268
341302,私立大同高中,25.0665289,121.5212887
343301,市立中山女中,25.0485108,121.5372111
343302,市立大同高中,25.0550217,121.5352723
343303,市立大直高中,25.07886,121.543375
351301,私立強恕中學,25.0250348,121.5199538
353301,市立建國中學,25.0311123,121.5121811
353302,市立成功中學,25.0423722,121.5236574
353303,市立北一女中,25.0385655,121.513098
361301,臺北市靜修高中,25.057931,121.5154866
363301,市立明倫高中,25.0762461,121.5193385
363302,市立成淵高中,25.0614213,121.5185204
373301,市立華江高中,25.0279587,121.4971355
373302,市立大理高中,25.0308614,121.4912045
380301,國立政大附中,24.9871265,121.5858355
381301,私立東山高中,24.9733741,121.5615447
381302,私立滬江高中,24.9894519,121.5389166
381303,私立大誠高中,24.9909268,121.5781913
381304,私立再興中學,24.9901829,121.5582292
381305,私立景文高中,24.9853665,121.5673971
381306,臺北市靜心高中,24.9988631,121.5467337
383301,市立景美女中,24.9807371,121.5561748
383302,市立萬芳高中,25.0006248,121.5589135
393301,市立南港高中,25.052412,121.595026
393302,市立育成高中,25.0580409,121.6092336
401301,私立文德女中,25.0776217,121.5895146
401302,私立方濟中學,25.0773094,121.5905296
401303,私立達人女中,25.0812081,121.5876596
403301,市立內湖高中,25.0783868,121.5866053
403302,市立麗山高中,25.0851252,121.5780273
403303,市立南湖高中,25.0664602,121.6105269
411301,私立泰北高中,25.097375,121.533898
411302,私立衛理女中,25.1017466,121.5523894
411303,私立華興中學,25.1050855,121.5385223
413301,市立陽明高中,25.0922121,121.5172424
413302,市立百齡高中,25.0870549,121.5229998
421301,私立薇閣高中,25.1395247,121.5039712
421302,臺北市幼華高中,25.1334354,121.4968537
421303,臺北市私立奎山實驗高級中學,25.112998,121.5223028
423301,市立復興高中,25.143626,121.501768
423302,市立中正高中,25.1041727,121.5166212
521301,天主教明誠高中,22.666246,120.292014
521303,私立大榮高中,22.6535429,120.2801989
523301,市立鼓山高中,22.6520055,120.2747089
533301,市立左營高中,22.6933029,120.2961624
533302,市立新莊高中,22.6813675,120.3175826
540301,國立中山大學附屬國光高中,22.7082782,120.3050243
543301,市立中山高中,22.728652,120.2927492
543302,市立楠梓高中,22.7439985,120.3316666
551301,私立立志高中,22.6533576,120.3264762
551303,南海月光實驗學校,22.6080409,120.4270968
553301,市立高雄中學,22.6383194,120.2980028
553302,市立三民高中,25.0868693,121.4737065
563301,市立新興高中,22.6243825,120.3041272
573301,市立高雄女中,22.6212858,120.2928418
580301,國立高師大附中,22.6260694,120.3222549
581301,私立復華高中,22.621182,120.313424
581302,天主教道明中學,22.6338273,120.3228343
583301,市立中正高中,25.1041727,121.5166212
593301,市立前鎮高中,22.5879884,120.3192383
593302,市立瑞祥高中,22.6016779,120.3248846
613301,市立小港高中,22.5644955,120.3567887
710301,國立金門高中,24.4349442,118.3137113
720301,國立馬祖高中,26.1544475,119.9498791
11405,私立樹人家商,24.994468,121.4192578
11407,私立復興商工,25.003454,121.518399
11408,私立南強工商,24.9808412,121.5448562
11413,私立穀保家商,25.0693157,121.4710759
11419,私立開明工商,24.9800534,121.5462266
11420,私立智光商工,24.9956844,121.5142997
11421,私立清傳高商,25.0520106,121.4768683
11426,私立能仁家商,24.9579932,121.5401745
11427,私立豫章工商,24.9972245,121.4590085
11431,私立莊敬工家,24.98555,121.5320166
11432,私立中華商海,25.1774912,121.6860542
13402,市立瑞芳高工,25.1107886,121.8036958
13430,市立三重商工,25.0693564,121.481217
13433,市立新北高工,24.9824,121.4513028
13434,市立淡水商工,25.1873489,121.454254
14439,市立鶯歌工商,24.9393742,121.3351073
14468,市立樟樹國際實中,25.0659397,121.6398933
20403,國立宜蘭高商,24.7552719,121.7654572
20404,國立羅東高商,24.6726722,121.756686
20405,國立蘇澳海事,24.594231,121.8445872
20407,國立羅東高工,24.6704012,121.7512832
20409,國立頭城家商,24.8513546,121.8160472
30403,國立北科大附屬桃園農工,24.9952277,121.3206408
31414,私立成功工商,24.9888384,121.3411664
31415,私立方曙商工,24.8579318,121.2008338
31421,私立永平工商,24.919795,121.17523
33407,市立中壢高商,24.962135,121.214913
33408,市立中壢家商,24.962135,121.214913
41401,私立內思高工,24.828444,121.0824601
50401,國立大湖農工,24.4211342,120.8612213
50404,國立苗栗農工,24.5564627,120.834069
50407,國立苗栗高商,24.5570318,120.8152979
51408,私立中興商工,24.6879837,120.8725771
51411,私立育民工家,24.5380764,120.8130589
51412,私立賢德工商,24.4754734,120.6753088
51413,私立龍德家商,24.4286716,120.6439174
63401,市立豐原高商,24.245781,120.7129446
63402,市立大甲高工,24.3465387,120.6399356
63404,市立東勢高工,24.2423422,120.8343503
63407,市立沙鹿高工,24.2386696,120.565676
63408,市立霧峰農工,24.0731392,120.6998281
64406,市立神岡高工,24.246864,120.681939
70401,國立彰師附工,24.0825769,120.5559702
70402,國立永靖高工,23.9261111,120.5455556
70403,國立二林工商,23.9011139,120.3774756
70405,國立秀水高工,24.0344699,120.499007
70406,國立彰化高商,24.0729394,120.5531255
70408,國立員林農工,23.9545613,120.5818258
70409,國立員林崇實高工,23.9611258,120.5748453
70410,國立員林家商,23.9503771,120.576024
70415,國立北斗家商,23.8783142,120.5224644
71413,私立大慶商工,23.9481636,120.6010439
71414,私立達德商工,23.852614,120.608405
80401,國立仁愛高農,24.021123,121.133602
80403,國立埔里高工,23.9719852,120.9778465
80404,國立南投高商,23.9035545,120.6845134
80406,國立草屯商工,23.9952977,120.6657122
80410,國立水里商工,23.8050576,120.8531811
81409,南投縣同德高中,23.99842,120.695346
90401,國立虎尾農工,23.7148646,120.4365681
90402,國立西螺農工,23.7945462,120.4683819
90403,國立斗六家商,23.7073983,120.5468819
90404,國立北港農工,23.5794171,120.3078728
90413,國立土庫商工,23.6724499,120.3877409
91410,私立大成商工,23.71066,120.4454154
91414,私立大德工商,23.6849601,120.472107
100402,國立民雄農工,23.5390792,120.4262305
101405,私立協志工商,23.5492506,120.4309573
101406,私立萬能工商,23.4310788,120.3909258
110401,國立新化高工,23.0382113,120.3186639
110403,國立白河商工,23.353023,120.41629
110404,國立北門農工,23.1760031,120.1808703
110405,國立曾文家商,23.179107,120.2458479
110406,國立新營高工,23.3132131,120.3172437
110407,國立玉井工商,23.1200355,120.4598153
110409,國立臺南高工,23.014539,120.2336054
110410,國立曾文農工,23.1871927,120.2631909
111419,私立陽明工商,23.1920689,120.3287761
111427,私立育德工家,23.3161758,120.3118299
120401,國立旗山農工,22.900965,120.48276
120402,國立岡山農工,22.8021759,120.2897251
120409,國立鳳山商工,22.634032,120.3579315
121405,私立中山工商,22.600589,120.393324
121410,私立旗美商工,22.884854,120.5195241
121413,私立高英工商,22.5941731,120.3999596
121415,私立華德工家,22.9074481,120.1811627
121417,私立高苑工商,22.758928,120.2909505
130401,國立內埔農工,22.707455,120.640759
130403,國立屏東高工,22.663264,120.4866854
130404,國立佳冬高農,22.4128213,120.5639292
130410,國立東港海事,22.4652659,120.4419585
130417,國立恆春工商,21.9927817,120.7468812
131409,私立民生家商,22.6587044,120.5138436
131418,私立日新工商,22.556566,120.5362275
140404,國立關山工商,23.0474168,121.1590111
140405,國立臺東高商,22.7573451,121.1448649
140408,國立成功商水,23.1059648,121.3824325
141406,私立公東高工,22.767126,121.1350105
150401,國立花蓮高農,23.984087,121.5991057
150404,國立花蓮高工,23.9986012,121.6205213
150405,國立花蓮高商,23.9863576,121.6022768
150411,國立光復商工,23.66717,121.427342
151410,花蓮縣上騰工商,23.9720191,121.5588648
160401,國立澎湖海事水產,23.5702986,119.5653356
170403,國立海洋大學附屬基隆海事,25.147706,121.771736
170404,國立基隆商工,25.0941889,121.7173003
171405,私立光隆家商,25.129899,121.749759
171407,私立培德工家,25.1298359,121.771327
180403,國立新竹高商,24.7968761,120.986653
180404,國立新竹高工,24.8093963,120.9829614
190406,國立興大附農,24.1286217,120.6851031
191412,財團法人光華高工,24.1380353,120.7364363
193404,市立臺中家商,24.133498,120.684587
193407,市立臺中高工,24.1133614,120.6614906
200401,國立華南高商,23.4784199,120.4592511
200405,國立嘉義高工,23.4713743,120.464588
200406,國立嘉義高商,23.4824119,120.4624409
200407,國立嘉義家職,23.4716168,120.4587285
201408,私立東吳工家,23.4688064,120.460471
210408,國立臺南高商,22.9812227,120.2023948
210416,國立臺南海事,22.9936178,120.1516513
211407,私立南英商工,22.9861239,120.1996235
211412,私立亞洲餐旅,22.9749246,120.2029425
211419,私立慈幼工商,22.9893311,120.2397489
311401,臺北市普林思頓高中,25.0498769,121.5540993
323401,市立松山家商,25.0350498,121.5806133
323402,市立松山工農,25.039982,121.572258
331402,私立東方工商,25.0322561,121.5514468
331403,私立喬治工商,25.0259066,121.5545048
331404,私立開平餐飲,25.0285456,121.5423269
333401,市立大安高工,25.0320189,121.5430425
341402,私立稻江護家,25.0655224,121.5288056
351402,臺北市開南高中,25.0424386,121.5218475
361401,私立稻江高商,25.0643302,121.5119253
383401,市立木柵高工,24.9968638,121.5726322
393401,市立南港高工,25.0563397,121.6072921
403401,市立內湖高工,25.0794378,121.5753706
411401,私立華岡藝校,25.1371929,121.5491247
413401,市立士林高商,25.0945436,121.5160767
421404,私立惇敘工商,25.1446525,121.5271635
521401,私立中華藝校,22.622051,120.3287805
533401,市立海青工商,22.6752655,120.284936
533402,市立三民家商,22.666946,120.3011952
551402,私立樹德家商,22.643005,120.32803
553401,市立高雄高工,22.6503468,120.3264388
563401,市立高雄高商,22.625573,120.309023
581401,私立國際商工,22.6212347,120.326302
581402,私立三信家商,22.622051,120.3287805
593401,市立中正高工,22.6107875,120.3175699
610405,國立高餐大附屬餐旅中學,22.566209,120.371733
710401,國立金門農工,24.441624,118.423344
351B09,私立南華高中進修學校,25.0156175,121.5311921
361B09,私立志仁中學進修學校,25.0522051,121.5188456
011C71,私立光華高商進修學校,25.0030663,121.4548612
210C01,國立成功大學附設高工進修學校,22.9991111,120.2158342
070F01,國立和美實驗學校,24.105286,120.4914278
543F01,市立楠梓特殊學校,22.7283615,120.3133528
031G91,私立宏德高商進修學校,24.962135,121.214913
070G92,國立二林工商進校分校,23.9011139,120.3774756
111G91,私立樹德高中進修學校,22.643005,120.32803
151G91,私立正德高中進修學校,24.0587655,120.5184684
03C301,誠正中學桃園分校,24.8663014,120.980387
04C301,誠正中學,24.8663014,120.980387
07C301,誠正中學彰化分校,23.8768466,120.6077288
12C301,明陽中學,22.7612808,120.3726291
44320,縣立湖口高中,24.8906561,121.0529741
50303,國立苗栗高中,24.5594466,120.816554
50310,國立竹南高中,24.684093,120.874663
50314,國立卓蘭高中,24.312708,120.831961
50315,國立苑裡高中,24.4479426,120.6560924
51302,私立君毅高中,24.7010062,120.8830877
51305,私立大成高中,24.6824956,120.9384643
51306,私立建臺高中,24.5602456,120.8149379
51307,私立全人實驗高中,24.3058986,120.8622756
54308,縣立三義高中,24.4090224,120.7655713
54309,縣立苑裡高中,24.438008,120.663488
54317,縣立興華高中,24.6858788,120.9363403
54333,縣立大同高中,22.678426,120.477654
60322,國立興大附中,24.1099288,120.682895
60323,國立中科實驗高級中學,24.2303236,120.6260535
61301,財團法人常春藤高中,24.195178,120.7178368
61306,私立明台高中,24.0614589,120.7031172
61309,私立致用高中,24.3407676,120.6304738
61310,私立大明高中,24.116227,120.685708
61311,私立嘉陽高中,24.2651602,120.5831409
61313,私立明道高中,24.1068736,120.6361535
61314,私立僑泰高中,24.1117897,120.6669624
61315,私立華盛頓高中,24.1581869,120.74518
61316,私立青年高中,24.086958,120.693459
61317,私立弘文高中,24.2261308,120.704606
61318,私立立人高中,24.1057001,120.691521
61319,私立玉山高中,24.2499848,120.8438855
61321,私立慈明高中,24.1052061,120.7272563
61322,華德福大地實驗學校,24.1020885,120.6276741
63303,市立大甲高中,24.3419225,120.6217338
63305,市立清水高中,24.2652825,120.5740941
63312,市立豐原高中,24.2558681,120.7414285
64308,市立后綜高中,24.3064604,120.7231399
64324,市立大里高中,24.0951235,120.6789632
64328,市立新社高中,24.2386141,120.806864
64336,市立長億高中,24.1138805,120.7210106
64342,市立中港高中,24.2442409,120.5419946
64350,市立龍津高中,24.204669,120.521466
70301,國立彰化女中,24.081169,120.543736
70304,國立員林高中,23.9622852,120.5637442
70307,國立彰化高中,24.0722391,120.5511591
70316,國立鹿港高中,24.06098,120.4236821
70319,國立溪湖高中,23.9690638,120.4866598
71311,私立精誠高中,24.0731321,120.5272945
71317,私立文興高中,23.867111,120.5868495
71318,財團法人正德高中,24.0587655,120.5184684
74308,縣立彰化藝術高中,24.078871,120.554266
74313,縣立二林高中,23.8901258,120.359044
74323,縣立和美高中,24.1132428,120.49367
74328,縣立田中高中,23.8555119,120.5887042
74339,縣立成功高中,23.9515136,120.4718336
80302,國立南投高中,23.91009,120.6803516
80305,國立中興高中,23.9505197,120.6951144
80307,國立竹山高中,23.7618343,120.6812718
80308,國立暨大附中,23.9717773,120.9460392
81311,私立五育高中,23.8929479,120.6719347
81312,私立三育高中,23.9084174,120.9350563
81313,私立弘明實驗高中,23.8576862,120.6972649
81314,私立普台高中,23.9942691,120.93693
84309,縣立旭光高中,23.9795219,120.6945993
90305,國立斗六高中,23.7133968,120.5454533
90306,國立北港高中,23.577404,120.3044383
90315,國立虎尾高中,23.7098209,120.4420491
91307,私立永年高中,23.6797617,120.3998417
91308,私立正心高中,23.7150432,120.5282857
91311,私立文生高中,23.6326997,120.2265183
91312,私立巨人高中,23.5754753,120.289419
91316,私立揚子高中,23.6966464,120.4231492
91318,財團法人義峰高中,23.7596526,120.5934384
91319,福智高中,23.635984,120.523744
91320,雲林縣維多利亞實驗高中,23.679668,120.5525074
94301,縣立斗南高中,23.6818742,120.4758371
94307,縣立麥寮高中,23.7577527,120.2511462
94308,縣立古坑華德福實驗高級中學,23.6306774,120.6154051
94326,縣立蔦松藝術高中,23.5217265,120.2299138
100301,國立東石高中,23.4646737,120.2516334
100302,國立新港藝術高中,23.559895,120.349388
101303,私立同濟高中,23.604358,120.473369
101304,私立協同高中,23.5323168,120.4367532
104319,縣立竹崎高中,23.5211813,120.5530783
104326,縣立永慶高中,23.46505,120.294687
110302,國立新豐高中,22.9718627,120.295809
110308,國立臺南大學附中,23.0232218,120.2522672
110311,國立北門高中,23.1671481,120.1772896
110312,國立新營高中,23.3083164,120.3120353
110314,國立後壁高中,23.3558294,120.3587437
110315,國立善化高中,23.129921,120.300794
110317,國立新化高中,23.039008,120.3104284
110328,國立南科國際實驗高中,23.1060327,120.2922443
111313,私立南光高中,23.2981915,120.3148321
111318,私立鳳和高中,23.2796354,120.326017
111320,私立港明高中,23.1189915,120.1952371
111321,臺南市興國高中,23.3128662,120.3223801
111322,私立明達高中,23.3105731,120.2746819
111323,私立黎明高中,23.1733109,120.2471809
111326,私立新榮高中,23.2693288,120.3159048
114306,市立大灣高中,23.00666,120.2729047
114307,市立永仁高中,23.0036078,120.2402968
120303,國立鳳山高中,22.6297556,120.3456278
120304,國立岡山高中,22.7974429,120.2904307
120311,國立旗美高中,22.8839816,120.4944552
120319,國立鳳新高中,22.6137876,120.3424696
121302,光禾華德福實驗學校,22.6080409,120.4270968
121306,財團法人新光高中,22.6350568,120.3902593
121307,財團法人普門中學,22.716617,120.446001
121318,私立正義高中,22.6025542,120.3397998
121320,私立義大國際高中,22.7283207,120.4055547
124302,市立文山高中,22.6484436,120.3535462
124311,市立林園高中,22.5137204,120.3945114
124313,市立仁武高中,22.7022904,120.3554411
124322,市立路竹高中,22.8552779,120.2523546
124333,市立六龜高中,22.993343,120.635442
124340,市立福誠高中,22.5903176,120.3232778
130302,國立屏東女中,22.6745474,120.4937461
130305,國立屏東高中,22.6865723,120.4876483
130306,國立潮州高中,22.5495485,120.5452894
130322,國立屏北高中,22.759382,120.543578
131302,屏東縣崇華高中,22.6805486,120.5471813
131307,財團法人屏榮高中,22.6735412,120.5030639
131308,私立陸興高中,22.674615,120.5005095
131311,私立美和高中,22.6006765,120.5600266
134304,縣立大同高中,22.678426,120.477654
134321,縣立枋寮高中,22.3706155,120.5903571
134324,縣立東港高中,22.4648761,120.4553517
134334,縣立來義高中,22.52572,120.6296972
150302,國立花蓮女中,23.9793987,121.6152496
154399,縣立南平中學,23.7833851,121.4575662
173306,市立安樂高中,25.1351392,121.7299807
10301,國立華僑中學,25.0075,121.4477778
11301,私立淡江高中附設國中部,25.1762507,121.437164
11302,私立康橋實驗高中附設國中部,25.079564,121.395793
11306,私立金陵女中附設國中部,25.04299,121.466942
11307,私立裕德實驗高中附設國中部,24.9830118,121.4394801
11309,私立南山高中附設國中部,25.0016594,121.5036507
11310,私立恆毅高中附設國中部,25.0366541,121.4537324
11311,私立聖心女中附設國中部,25.13562,121.449122
11312,私立崇義高中附設國中部,25.079564,121.395793
11314,私立中華高中附設國中部,24.975578,121.4374135
11316,私立格致高中附設國中部,25.0738323,121.4886747
11317,私立醒吾高中附設國中部,25.079564,121.395793
11318,私立徐匯高中附設國中部,25.080107,121.480124
11322,私立崇光高中附設國中部,24.9718753,121.538946
11323,私立光仁高中附設國中部,25.0183052,121.4764718
11324,私立竹林高中附設國中部,24.9799565,121.5057743
11325,私立及人高中附設國中部,24.966799,121.51489
11329,私立辭修高中附設國中部,24.932696,121.407931
11330,私立林口康橋高中附設國中部,25.0741868,121.389928
11399,私立時雨高中附設國中部,25.1095045,121.8552909
14302,市立海山高中附設國中部,25.0096689,121.4712073
14311,市立三重高中附設國中部,25.054741,121.4914967
14315,市立永平高中附設國中部,25.0105828,121.5083843
14322,市立樹林高中附設國中部,24.9829633,121.4223883
14326,市立明德高中附設國中部,24.9038379,121.365725
14332,市立秀峰高中附設國中部,25.0657829,121.6608704
14338,市立金山高中附設國中部,25.224676,121.637008
14343,市立安康高中附設國中部,24.9694528,121.5153
14347,市立雙溪高中附設國中部,25.0349452,121.8632655
14348,市立石碇高中附設國中部,25.0141303,121.6429468
14353,市立丹鳳高中附設國中部,25.021049,121.416544
14356,市立清水高中附設國中部,24.9823337,121.4654721
14357,市立三民高中附設國中部,25.0868693,121.4737065
14362,市立錦和高中附設國中部,24.992544,121.491084
14363,市立光復高中附設國中部,25.0167462,121.4822165
14364,市立竹圍高中附設國中部,25.1459534,121.461587
14381,市立北大高中附設國中部,24.948248,121.3764596
14399,市立豐珠中學附設國中,25.0656443,121.9018436
14468,市立樟樹國際實創高中附設國中部,25.0659397,121.6398933
14501,市立板橋國中,25.0250509,121.4531667
14503,市立重慶國中,25.0759168,121.5180299
14504,市立江翠國中,25.0288652,121.4684587
14505,市立中山國中,25.0606103,121.5455307
14506,市立新埔國中,25.0248193,121.4597107
14507,市立新莊國中,25.0358171,121.4519927
14508,市立新泰國中,25.0425875,121.444305
14509,市立福營國中,25.0252883,121.4226136
14510,市立頭前國中,25.0545816,121.4589197
14512,市立光榮國中,25.0704534,121.4999178
14513,市立明志國中,25.0634787,121.4890227
14514,市立碧華國中,25.0824108,121.4949227
14516,市立永和國中,25.0064786,121.5236378
14517,市立福和國中,25.0040606,121.5209434
44531,縣立北平華德福實驗學校(國中),24.8524659,121.0863555
114539,市立後壁國中,23.354092,120.359707
114540,市立菁寮國中,23.3684606,120.33256
114543,市立大橋國中,23.0216463,120.2315349
114544,市立沙崙國中,22.9296124,120.2819192
121302,私立光禾華德福實驗學校(國中部),22.6080409,120.4270968
121307,私立普門高中附設國中部,22.716617,120.446001
121318,私立正義高中附設國中部,22.6025542,120.3397998
121320,私立義大國際高中附設國中部,22.7283202,120.4055464
123501,市立巴楠花部落國中(小),22.9648377,120.5395018
124302,市立文山高中附設國中部,22.6484436,120.3535462
124311,市立林園高中附設國中部,22.5137204,120.3945114
124313,市立仁武高中附設國中部,22.7022904,120.3554411
124322,市立路竹高中附設國中部,22.8552779,120.2523546
124333,市立六龜高中附設國中部,22.993343,120.635442
124340,市立福誠高中附設國中部,22.5903287,120.3241829
124501,市立鳳山國中,22.624954,120.3721174
124503,市立鳳西國中,22.624954,120.3721174
124504,市立五甲國中,22.5981673,120.328659
124505,市立鳳甲國中,22.616882,120.3425688
124506,市立忠孝國中,25.051247,121.5082165
124507,市立大寮國中,22.6034583,120.3928667
124508,市立潮寮國中,22.5644496,120.4247143
124509,市立大樹國中,22.6577132,120.4230721
124510,市立溪埔國中,22.7190601,120.4435042
124512,市立鳥松國中,22.6663324,120.3720353
124514,市立大社國中,22.7306201,120.3567142
124515,市立岡山國中,22.790828,120.3031924
124516,市立前峰國中,22.7889384,120.2879124
124517,市立永安國中,22.8233569,120.2403399
124518,市立橋頭國中,22.7590798,120.307403
124519,市立梓官國中,22.7624247,120.2634947
124520,市立燕巢國中,22.785835,120.3625064
124521,市立阿蓮國中,22.8850916,120.3258285
124523,市立湖內國中,22.907885,120.22751
124524,市立茄萣國中,22.9070887,120.1810957
124525,市立田寮國中,22.863157,120.3601662
124526,市立彌陀國中,22.7763249,120.2465854
124527,市立旗山國中,22.8814503,120.4810926
124528,市立圓富國中,22.9284154,120.5010606
124529,市立大洲國中,22.835638,120.460497
124530,市立美濃國中,22.8945406,120.5431778
124531,市立南隆國中,22.866394,120.5345598
124532,市立龍肚國中,22.8790179,120.5707985
124534,市立寶來國中,23.1094321,120.7036045
124535,市立杉林國中,22.9687263,120.541032
124536,市立內門國中,22.9222431,120.4537867
124537,市立甲仙國中,23.0810133,120.5919626
124538,市立中芸國中,22.4858765,120.3953694
124539,市立中庄國中,22.6364684,120.401749
124541,市立蚵寮國中,22.7285495,120.2585692
124542,市立那瑪夏國中,23.239841,120.697256
50314,國立卓蘭高中附設國中部,24.312708,120.831961
51302,私立君毅高中附設國中部,24.7010062,120.8830877
51306,私立建台高中附設國中部,24.5602456,120.8149378
51307,私立全人實驗高中附設國中部,24.3058986,120.8622756
54308,縣立三義高中附設國中部,24.4090224,120.7655713
54309,縣立苑裡高中附設國中部,24.438008,120.663488
54317,縣立興華高中附設國中部,24.6858788,120.9363403
54333,縣立大同高中附設國中部,22.678426,120.477654
54501,縣立苗栗國中,24.5542379,120.8124939
54502,縣立大倫國中,24.569831,120.830963
54503,縣立明仁國中,24.5576,120.811701
54504,縣立頭屋國中,24.5782239,120.8490437
54505,縣立公館國中,24.498079,120.8278956
54506,縣立鶴岡國中,24.5285794,120.8308554
54507,縣立文林國中,24.489767,120.789545
54510,縣立致民國中,24.4185187,120.6860649
54511,縣立通霄國中,24.4919877,120.67998
54512,縣立南和國中,24.446906,120.72119
54513,縣立烏眉國中,24.5062915,120.7157749
54514,縣立啟新國中,24.561079,120.713353
54515,縣立西湖國中,24.556177,120.75774
54516,縣立頭份國中,24.6914555,120.9012055
54518,縣立文英國中,24.6562278,120.880795
54519,縣立竹南國中,24.6848113,120.8760679
54520,縣立照南國中,24.694254,120.877365
54521,縣立三灣國中,24.6495538,120.9536484
54522,縣立南庄國中,24.6004361,120.9994667
54523,縣立造橋國中,24.6394481,120.8636532
54524,縣立大西國中,24.624427,120.894748
54525,縣立後龍國中,24.6166004,120.7845603
54526,縣立維真國中,24.6121331,120.7945869
54527,縣立大湖國中,24.4263934,120.8707982
54528,縣立南湖國中,24.397253,120.867304
54529,縣立獅潭國中,24.5445053,120.9228644
54531,縣立泰安國中(小),24.422212,120.910496
54532,縣立建國國中,24.9826898,121.3157472
54534,縣立福興武術國中(小),24.425383,120.727704
54535,縣立新港國中(小),23.5559483,120.3449036
60323,國立中科實中附設國中部,24.2303236,120.6260535
61301,私立常春藤高中附設國中部,24.195178,120.7178368
61310,私立大明高中附設國中部,24.116227,120.685708
61313,私立明道高中附設國中部,24.1068736,120.6361535
61314,私立僑泰中學附設國中部,24.1117897,120.6669624
61315,私立華盛頓高中附設國中部,24.1581869,120.74518
61317,私立弘文高中附設國中部,24.2261308,120.704606
61318,私立立人高中附設國中部,24.1057001,120.691521
61322,私立華德福大地實驗教育學校國中部,24.1020885,120.6276741
64521,市立溪南國中,24.0721933,120.6442611
64522,市立霧峰國中,24.0673817,120.6888231
64523,市立光復國中(小),24.0439315,120.6892654
64525,市立太平國中,24.1482037,120.7345688
64526,市立中平國中,25.0535488,121.4438365
64527,市立石岡國中,24.266841,120.79648
64529,市立東勢國中,24.250894,120.832342
14518,市立中和國中,24.9861361,121.5084083
14519,市立積穗國中,25.0003078,121.479696
14520,市立漳和國中,25.0026261,121.5055406
14521,市立鶯歌國中,24.9504628,121.3448645
14523,市立柑園國中,24.954675,121.384178
14524,市立土城國中,24.9628096,121.4295471
14525,市立三峽國中,24.939053,121.369127
14527,市立八里國中,25.1398858,121.400741
14528,市立泰山國中,25.0639896,121.4246015
14529,市立五股國中,25.082292,121.436015
14530,市立蘆洲國中,25.0869126,121.4665559
14531,市立林口國中,25.0762471,121.3775622
14533,市立汐止國中,25.0669566,121.6583371
14534,市立淡水國中,25.1749602,121.4366735
14536,市立三芝國中,25.259347,121.5018147
14537,市立石門實驗國中,25.2908277,121.5671383
14539,市立萬里國中,25.177796,121.694629
14540,市立坪林實驗國中,24.9350844,121.7107613
14541,市立文山國中,24.956705,121.538935
14542,市立五峰國中,24.9667222,121.5441602
14544,市立瑞芳國中,25.1079407,121.8149887
14545,市立欽賢國中,25.105223,121.845903
14546,市立貢寮國中,25.0656443,121.9018436
14549,市立深坑國中,25.00168,121.618296
14550,市立平溪國中,25.0239799,121.7334114
14551,市立烏來國中(小),24.8636951,121.5538264
14552,市立溪崑國中,24.996868,121.431494
14554,市立自強國中,24.9987911,121.4724939
14555,市立中正國中,25.0323588,121.5219754
14558,市立義學國中,25.0517424,121.431268
14559,市立中平國中,25.0535488,121.4438365
14560,市立鳳鳴國中,24.967511,121.331827
14561,市立三和國中,25.0763471,121.4867892
14565,市立尖山國中,24.9436969,121.3421559
14566,市立正德國中,25.1787337,121.4470473
14567,市立安溪國中,24.9266425,121.3728213
14569,市立育林國中,24.98532,121.415128
14570,市立青山國中(小),25.0611597,121.65666
14571,市立崇林國中,25.0684112,121.3701667
14572,市立二重國中,25.0658422,121.4800173
14573,市立大觀國中,25.0111472,121.4487222
14574,市立三多國中,25.0063705,121.4146724
14575,市立忠孝國中,25.051247,121.5082165
14576,市立鷺江國中,25.0903474,121.4620767
14577,市立桃子腳國中(小),24.948918,121.382898
14579,市立佳林國中,25.0813656,121.3845099
14580,市立達觀國中(小),24.9536053,121.5000233
21301,私立慧燈高中附設國中部,24.777028,121.7155386
21310,私立中道高中附設國中部,24.7597787,121.7937987
24322,縣立南澳高中附設國中部,24.465902,121.801868
24325,縣立慈心華德福教育實驗高中附設國中,24.6268113,121.795708
24501,縣立宜蘭國中,24.7619679,121.7585067
24502,縣立中華國中,24.7492271,121.7675113
24503,縣立復興國中,24.7490995,121.7468602
24504,縣立羅東國中,24.6718092,121.7674792
24505,縣立東光國中,24.6718092,121.7674792
24506,縣立國華國中,24.6778835,121.7615085
24507,縣立頭城國中,24.864216,121.8213207
24508,縣立蘇澳國中,24.595725,121.835978
24509,縣立文化國中,24.618119,121.833191
24510,縣立南安國中,24.5760282,121.8690009
24511,縣立三星國中,24.6677268,121.6539348
24512,縣立礁溪國中,24.8171752,121.7673427
24513,縣立吳沙國中,24.785434,121.759985
24514,縣立冬山國中,24.6318151,121.7912871
24515,縣立順安國中,24.6547852,121.765753
24516,縣立五結國中,24.69717,121.80033
24517,縣立興中國中,24.698913,121.7708718
24518,縣立利澤國中,24.6658633,121.828673
24519,縣立員山國中,24.7503023,121.714608
24520,縣立內城國中(小),24.7188831,121.6875013
24521,縣立壯圍國中,24.7487231,121.7884569
24523,縣立大同國中,22.678426,120.477654
24524,縣立凱旋國中,24.7260003,121.7573169
24526,縣立人文國中(小),24.8599032,121.8197845
31301,私立桃園市漢英高中附設國中部,24.8481652,121.2453306
31310,私立六和高中附設國中部,24.9453453,121.1858942
31311,私立復旦高中附設國中部,24.948372,121.203082
31312,私立治平高中附設國中部,24.9158677,121.1886835
31313,私立振聲高中附設國中部,24.9905152,121.3022615
31319,私立清華高中附設國中部,24.9816339,121.1083826
31320,私立新興高中附設國中部,24.975174,121.271855
31326,私立大華高中附設國中部,24.882732,121.1744393
31502,私立有得國中(小),24.98035,121.251597
31503,私立康萊爾國中(小),24.999609,121.2966179
34332,市立觀音高中附設國中部,25.0147432,121.1327739
34335,市立新屋高中附設國中部,24.970544,121.1017254
34347,市立永豐高中附設國中部,24.9749709,121.2701299
34348,市立羅浮高中附設國中,24.9936281,121.3009798
34501,市立桃園國中,24.995649,121.304931
34502,市立青溪國中,24.997168,121.319889
34503,市立文昌國中,25.0103959,121.307982
34504,市立建國國中,24.9788939,121.3062558
34505,市立中興國中,24.9963811,121.2908267
34506,市立南崁國中,25.0547524,121.298237
34507,市立山腳國中,25.088127,121.278728
34508,市立大竹國中,25.0229601,121.2584651
64532,市立成功國中,24.0940491,120.6992732
124545,市立大灣國中,22.6764708,120.3421251
124546,市立嘉興國中,22.8156734,120.3121654
124547,市立茂林國中,22.8849452,120.6639377
124548,市立桃源國中,25.1347115,121.477338
124549,市立中崙國中,25.0487115,121.5611909
124550,市立鳳翔國中,22.5971332,120.3480765
131302,私立崇華高中附設國中,22.6805486,120.5471813
131308,私立陸興高中附設國中部,22.674615,120.5005095
131311,私立美和高中附設國中部,22.6006765,120.5600266
131501,私立南榮國中(代用),22.5133707,120.5182968
134304,縣立大同高中附設國中部,22.678426,120.477654
134321,縣立枋寮高中附設國中部,22.3706155,120.5903571
134324,縣立東港高中附設國中部,22.4648761,120.4553517
134334,縣立來義中學附設國中部,22.52572,120.6296972
134501,縣立明正國中,22.6795669,120.4976171
134502,縣立中正國中,22.6720999,120.5086289
134503,縣立公正國中,22.6407893,120.4842587
134505,縣立鶴聲國中,22.6588033,120.4723409
134506,縣立至正國中,22.6911414,120.4936102
134507,縣立長治國中,22.6935377,120.5442428
134508,縣立麟洛國中,22.6407066,120.5360571
134509,縣立九如國中,22.717214,120.486393
134510,縣立里港國中,22.7709889,120.4962283
134511,縣立鹽埔國中,22.7531256,120.574506
134512,縣立高樹國中,22.816889,120.603629
134513,縣立高泰國中,22.7920273,120.6121605
134514,縣立內埔國中,22.6109593,120.5702291
134515,縣立崇文國中,22.6786086,120.6012856
134516,縣立竹田國中,22.6166543,120.5237999
134517,縣立潮州國中,22.553934,120.542915
134518,縣立光春國中,22.534405,120.540685
134519,縣立萬巒國中,22.571429,120.574788
134520,縣立新埤國中,22.483995,120.565311
134522,縣立萬丹國中,22.596841,120.4884536
134523,縣立新園國中,22.5452661,120.4613993
134525,縣立林邊國中,22.4328734,120.5100836
134526,縣立南州國中,22.4875174,120.5045682
134527,縣立佳冬國中,22.4288311,120.5667866
134528,縣立琉球國中,22.3362422,120.3684322
134530,縣立車城國中,22.0726638,120.7163793
134531,縣立恆春國中,22.0015314,120.7479462
134532,縣立滿州國中,22.0238789,120.8396558
134533,縣立瑪家國中,22.7023221,120.6094961
134535,縣立泰武國中,22.591822,120.6328161
134536,縣立牡丹國中,22.1288301,120.775646
134537,縣立獅子國中,22.2049857,120.7006841
134538,縣立東新國中,22.4737156,120.464926
134542,縣立萬新國中,22.5621638,120.492264
134543,縣立大路關國中(小),22.7391341,120.6204884
140301,國立臺東大學附屬體育高級中學,22.7644294,121.075238
141301,私立均一高中附設國中部,22.7703313,121.1261014
141307,私立育仁高中附設國中部,22.77419,121.092785
124543,市立青年國中,22.6307783,120.3493223
124544,市立一甲國中,22.8683765,120.2723655
144502,縣立東海國中,22.7454351,121.1495917
144503,縣立寶桑國中,22.7695545,121.1449035
144504,縣立卑南國中,22.788454,121.111934
144508,縣立鹿野國中,22.9069333,121.1351612
144509,縣立瑞源國中,22.9738564,121.1556553
144510,縣立關山國中,23.0451181,121.159828
144511,縣立池上國中,23.1148377,121.204932
144512,縣立大王國中,22.6154435,121.0066205
144513,縣立賓茂國中,22.5327778,120.9666667
144514,縣立大武國中,22.364649,120.907678
144515,縣立都蘭國中,22.8739349,121.2245649
144516,縣立泰源國中,23.001521,121.289998
144517,縣立新港國中,23.5578448,120.3431122
144518,縣立長濱國中,23.3145811,121.4586833
144519,縣立桃源國中,22.9026384,121.0803706
144520,縣立海端國中,23.098988,121.17644
144521,縣立綠島國中,22.6730389,121.4702398
151306,私立海星高中附設國中部,24.0086791,121.6131047
151312,私立慈大附中附設國中部,24.0000649,121.5741076
154399,縣立南平中學附設國中部,23.7833851,121.4575662
154501,縣立玉里國中,23.335277,121.312934
154502,縣立玉東國中,23.4167908,121.3709591
154503,縣立三民國中,23.4322735,121.3500322
154504,縣立美崙國中,23.9972365,121.6285149
154505,縣立花崗國中,23.9775045,121.6123828
154506,縣立國風國中,23.9781451,121.5957218
154507,縣立秀林國中,24.126051,121.6530032
154508,縣立新城國中,24.030965,121.604834
154509,縣立吉安國中,23.983132,121.561344
154510,縣立宜昌國中,23.9721569,121.58658
154511,縣立壽豐國中,23.8456878,121.5004386
154512,縣立平和國中,23.8856018,121.518801
154513,縣立光復國中,23.6706032,121.424671
154514,縣立富源國中,23.588935,121.383927
154515,縣立鳳林國中,23.7444815,121.4489814
154516,縣立萬榮國中,23.7076013,121.4181176
154517,縣立富里國中,23.1757009,121.248963
154518,縣立富北國中,23.2246835,121.2798008
154519,縣立豐濱國中,23.6014189,121.5215467
154520,縣立瑞穗國中,23.4991399,121.3758499
154521,縣立東里國中,23.2634849,121.302669
154522,縣立自強國中,23.9978564,121.5992803
154523,縣立化仁國中,23.9654969,121.5929914
164501,縣立馬公國中,23.5266867,119.5888429
164502,縣立中正國中,22.6720999,120.5086289
164503,縣立澎南國中,23.5266867,119.5888429
164504,縣立湖西國中,23.584501,119.653832
164505,縣立志清國中,23.5899191,119.6118039
164506,縣立鎮海國中,23.6435994,119.5972689
164507,縣立白沙國中,23.6678483,119.598255
164508,縣立吉貝國中,23.7367073,119.6058084
164509,縣立西嶼國中,23.5999762,119.5105136
164510,縣立望安國中,23.360288,119.4971491
64533,市立和平國中,25.0196314,121.5491522
64534,市立北勢國中,24.2252129,120.5691939
64535,市立鹿寮國中,24.2438043,120.5667501
64537,市立光榮國中,25.0704534,121.4999178
64538,市立潭秀國中,24.2161685,120.6995802
64539,市立順天國中,24.350426,120.6153585
64540,市立清海國中,24.2767126,120.5540226
64541,市立大華國中,24.2162867,120.6508118
64543,市立新光國中,24.1581429,120.7093801
64544,市立光正國中,24.0962682,120.7181211
64545,市立豐陽國中,24.2623377,120.7445288
64546,市立光德國中,24.1058285,120.6415987
64547,市立立新國中,24.1043277,120.6972183
64548,市立爽文國中,24.1072573,120.6776851
64549,市立公明國中,24.2495101,120.5986388
64551,市立神圳國中,24.2609052,120.6585902
64552,市立梨山國中(小),24.255672,121.25945
71311,私立精誠高中附設國中部,24.0731321,120.5272945
71317,私立文興高中附設國中部,23.867111,120.5868495
71318,私立正德高中附設國中部,24.0587655,120.5184684
74308,縣立彰化藝術高中附設國中部,24.078871,120.554266
74313,縣立二林高中附設國中部,23.8901258,120.359044
74323,縣立和美高中附設國中部,24.1132428,120.49367
74328,縣立田中高中附設國中部,23.8555119,120.5887042
74339,縣立成功高中附設國中部,23.9515136,120.4718336
74501,縣立北斗國中,23.8758755,120.5213474
74502,縣立鹿港國中,24.0514633,120.439298
74503,縣立鹿鳴國中,24.0988443,120.4690469
74504,縣立線西國中,24.1308535,120.4682133
74505,縣立陽明國中,22.6430211,120.3403786
74506,縣立彰安國中,24.0705957,120.5355787
74507,縣立彰德國中,24.0798957,120.5896033
74509,縣立芬園國中,24.011875,120.6266069
74510,縣立員林國中,23.963015,120.560476
74511,縣立明倫國中,23.9477714,120.5857321
74512,縣立萬興國中,23.9554806,120.4158658
74514,縣立竹塘國中,23.8644921,120.425734
74515,縣立大城國中,23.852762,120.323964
74516,縣立草湖國中,23.958039,120.3783378
74517,縣立芳苑國中,23.923894,120.319969
74518,縣立溪湖國中,23.9669094,120.4802037
74519,縣立埔鹽國中,23.9994179,120.4661178
74520,縣立埔心國中,23.953828,120.5430515
74521,縣立福興國中,24.0413503,120.4364587
74522,縣立秀水國中,24.036143,120.503737
74524,縣立伸港國中,24.149187,120.485174
74525,縣立大村國中,23.9881417,120.5649809
74526,縣立花壇國中,24.0297049,120.549093
74527,縣立永靖國中,23.9304052,120.5513441
74529,縣立二水國中,23.8024767,120.6448314
74530,縣立社頭國中,23.9011661,120.5841277
74531,縣立田尾國中,23.8895222,120.5340049
74532,縣立溪州國中,23.8503991,120.4948694
74533,縣立溪陽國中,23.8243859,120.5440256
74534,縣立埤頭國中,23.880247,120.460393
144505,縣立豐田國中,22.7717128,121.0908078
34509,市立大園國中,25.0532834,121.1714775
34510,市立竹圍國中,25.109708,121.238563
34511,市立大溪國中,24.8796559,121.2954956
34513,市立仁和國中,24.894726,121.2739164
34515,市立大崗國中,25.0524891,121.3710741
34516,市立八德國中,24.9294355,121.2866881
34517,市立大成國中,22.978864,120.197917
34518,市立中壢國中,24.9510053,121.218887
34520,市立平南國中,24.910076,121.2107638
34521,市立新明國中,24.956923,121.213008
34522,市立內壢國中,24.971042,121.248853
34523,市立大崙國中,24.9912409,121.1798842
34524,市立龍岡國中,24.9295099,121.2521234
34525,市立興南國中,24.9737065,121.2267781
34526,市立自強國中,24.9987911,121.4724939
34527,市立東興國中,24.9497767,121.2301109
34528,市立楊梅國中,24.9033484,121.1482637
34529,市立仁美國中,24.9240144,121.184162
34530,市立富岡國中,24.9420695,121.073974
63501,市立善水國中(小),24.2421318,120.5239738
64308,市立后綜高中附設國中部,24.3064604,120.7231399
64324,市立大里高中附設國中部,24.0950886,120.6789887
64328,市立新社高中附設國中部,24.2386141,120.806864
64336,市立長億高中附設國中部,24.1138805,120.7210106
64342,市立中港高中附設國中部,24.2442409,120.5419946
64350,市立龍津高中附設國中部,24.204669,120.521466
64406,市立神岡高工附設國中部,24.246864,120.681939
64501,市立豐原國中,24.2616162,120.7197251
64502,市立豐東國中,24.247688,120.7296032
64503,市立豐南國中,24.239154,120.716777
64504,市立潭子國中,24.2096079,120.7081277
64505,市立大雅國中,24.2238501,120.6496866
64507,市立后里國中,24.307963,120.6954847
64509,市立外埔國中,24.3322462,120.6508031
64510,市立大甲國中,24.353289,120.6224064
64511,市立日南國中,24.3780162,120.6523129
64512,市立大安國中,25.030845,121.54617
64513,市立清水國中,24.267959,120.562458
64514,市立清泉國中,24.305823,120.59252
64515,市立沙鹿國中,24.2349537,120.5633231
64516,市立梧棲國中,24.2526956,120.532722
64517,市立龍井國中,24.1919161,120.5433808
64518,市立四箴國中,24.1792488,120.5759848
64519,市立大道國中,24.1471742,120.5498765
64520,市立烏日國中,24.1050716,120.6174006
34531,市立瑞原國中,24.9334978,121.1215104
34533,市立觀音國中,25.0388807,121.0807615
34534,市立草漯國中,25.0447137,121.1405555
34536,市立大坡國中,24.9611593,121.0397864
34537,市立永安國中,22.8233569,120.2403399
34538,市立龍潭國中,24.8564263,121.2175825
34539,市立凌雲國中,24.85867,121.202121
34540,市立石門國中,24.8408333,121.24
34541,市立介壽國中,25.0564253,121.5564352
34542,市立慈文國中,25.0094401,121.3016355
74535,縣立和群國中,24.1114572,120.5194953
74536,縣立大同國中,22.678426,120.477654
74537,縣立原斗國中(小),23.8944729,120.4263714
74538,縣立彰興國中,24.0592742,120.5382511
74540,縣立彰泰國中,24.0914494,120.548645
74541,縣立信義國中(小),24.0627225,120.5281398
74542,縣立鹿江國際國中(小),24.0654947,120.4380802
74543,縣立民權華德福實驗國中(小),23.9333538,120.3476673
07C301,勵志中學附設國中部,23.8768384,120.6076966
81312,私立三育高中附設國中部,23.9084174,120.9350563
81313,私立弘明實驗高中國中部,23.8576862,120.6972649
81314,私立普台中學國中部,23.9942691,120.93693
81409,私立同德高中附設國中部,23.99842,120.695346
81502,私立均頭國中(小),23.9503079,120.9729562
84309,縣立旭光高中附設國中部,23.9795219,120.6945993
84501,縣立南投國中,23.9130514,120.6754063
84502,縣立南崗國中,23.8958218,120.6830195
84503,縣立中興國中,23.931492,120.6938455
84504,縣立鳳鳴國中,24.967511,121.331827
84505,縣立埔里國中,23.968138,120.96847
84506,縣立大成國中,24.9581072,121.305089
84507,縣立宏仁國中,23.9614151,120.9728156
84508,縣立草屯國中,23.977259,120.685991
84510,縣立日新國中,23.9947408,120.6769951
84511,縣立竹山國中,23.7533668,120.6818346
84512,縣立延和國中,23.7604828,120.6950715
84513,縣立社寮國中,23.8087654,120.7204455
84514,縣立瑞竹國中,23.6674163,120.6709032
84515,縣立集集國中,23.831825,120.7844139
84516,縣立名間國中,23.844906,120.6951144
84517,縣立三光國中,24.1672395,120.6984857
84518,縣立鹿谷國中,23.7490928,120.7589191
84519,縣立瑞峰國中,23.7825685,120.7762717
84520,縣立中寮國中,23.8840263,120.7661448
84521,縣立爽文國中,23.9333751,120.76193
84522,縣立魚池國中,23.8944602,120.9317344
84523,縣立明潭國中,23.8682513,120.9110706
84524,縣立國姓國中,24.042665,120.858612
84525,縣立北梅國中,24.0572269,120.9116462
84526,縣立北山國中,23.9806038,120.8732203
84527,縣立水里國中,23.8104697,120.8568926
84528,縣立民和國中,23.798001,120.9181474
84529,縣立信義國中,23.696674,120.854169
84530,縣立同富國中,23.59513,120.8874004
84531,縣立仁愛國中,24.8327902,121.014325
84532,縣立營北國中,23.9522122,120.6866696
91307,私立永年高中附設國中部,23.6797617,120.3998417
91308,私立正心高中附設國中部,23.7150432,120.5282857
91311,私立文生高中附設國中部,23.6326997,120.2265183
91316,私立揚子高中附設國中部,23.6966464,120.4231492
91319,私立福智高中附設國中部,23.6330383,120.5231125
91320,私立維多利亞高中附設國中部,23.679668,120.5525074
91502,私立淵明國中(代用),23.754222,120.614428
91503,私立東南國中(代用),23.8027207,120.4518606
91506,私立福智實驗國中,23.635984,120.523744
144322,縣立蘭嶼高中附設國中部,22.0498373,121.5118562
144506,縣立知本國中,22.716939,121.0476642
34543,市立平興國中,24.9496935,121.2062877
34544,市立楊明國中,24.9108783,121.1553024
34545,市立龍興國中,24.937941,121.236078
34546,市立福豐國中,24.9763815,121.3136515
34549,市立東安國中,24.916543,121.249509
34550,市立光明國中,24.1322703,120.6732226
34551,市立同德國中,25.0156967,121.2935256
34552,市立幸福國中,24.9880183,121.3319985
34554,市立大有國中,25.009464,121.3191487
34555,市立龜山國中,24.9973376,121.3388964
34556,市立會稽國中,25.0161645,121.3137939
34557,市立楊光國中(小),24.9065424,121.1685333
34559,市立迴龍國中(小),25.0194748,121.4050795
34560,市立平鎮國中,24.9450671,121.2182482
34561,市立武漢國中,24.8789771,121.2320206
34562,市立經國國中,25.0217249,121.3039678
34563,市立過嶺國中,24.9604207,121.1754012
34564,市立瑞坪國中,24.9070085,121.1806279
34565,市立青埔國中,25.0110225,121.2059626
41303,私立義民高中附設國中部,24.8391368,121.0040633
41305,私立忠信高中附設國中部,24.881078,121.001876
41306,私立東泰中學附設國中部,24.7115673,121.0983351
41307,私立仰德高中附設國中部,24.8815898,121.0051968
41401,私立內思高工附設國中部,24.828444,121.0824601
41501,私立康乃薾國中(小),24.8053098,121.0361385
44311,縣立六家高中附設國中部,24.8210147,121.0318342
44320,縣立湖口高中附設國中部,24.8906561,121.0529741
44501,縣立竹東國中,24.7360956,121.0870979
44502,縣立二重國中,24.764667,121.054678
44503,縣立員東國中,24.7071462,121.0973737
44504,縣立關西國中,24.7984638,121.1728287
44505,縣立石光國中,24.8142928,121.1291033
44506,縣立富光國中,24.7798384,121.1801753
44507,縣立新埔國中,25.0248193,121.4597107
44508,縣立照門國中,24.8491432,121.1132706
44509,縣立竹北國中,24.8410731,121.0004545
44510,縣立鳳岡國中,24.8638673,120.9663025
44512,縣立芎林國中,24.7619639,121.0917444
44513,縣立新豐國中,24.9029232,120.991156
44514,縣立精華國中,24.9269382,121.0188762
44515,縣立橫山國中,24.7182737,121.1461593
44516,縣立華山國中,24.7177778,121.1091667
44517,縣立寶山國中,24.7644623,120.9908943
44518,縣立北埔國中,24.7042857,121.0477338
44519,縣立峨眉國中,24.6909542,121.0182791
44521,縣立新湖國中,24.9027351,121.0357297
44522,縣立中正國中,22.6720999,120.5086289
44523,縣立五峰國中,24.632381,121.1191009
44524,縣立尖石國中,24.707025,121.2023547
44525,縣立忠孝國中,24.8790533,120.9996157
44526,縣立博愛國中,24.829963,121.0069528
44527,縣立仁愛國中,24.8327902,121.014325
44528,縣立自強國中,23.9978564,121.5992803
44529,縣立成功國中,24.8188646,121.0173831
44530,縣立東興國中,24.8109512,121.0304328
94301,縣立斗南高中附設國中部,23.6818742,120.4758371
94307,縣立麥寮高中附設國中部,23.7576416,120.2512806
94308,縣立古坑華德福實驗高中附設國中部,23.6306774,120.6154051
94326,縣立蔦松高中附設國中部,23.5217265,120.2299138
94502,縣立東明國中,23.6776016,120.470115
94503,縣立大埤國中,23.641869,120.430153
94504,縣立飛沙國中,23.6429484,120.1731827
94505,縣立四湖國中,23.630123,120.227439
94506,縣立水林國中,23.57237,120.248045
94508,縣立二崙國中,23.7734882,120.4076915
94509,縣立褒忠國中,23.6994368,120.3109085
94510,縣立莿桐國中,23.7497516,120.5075965
94511,縣立崙背國中,23.7579343,120.3491074
94512,縣立古坑國中(小),23.646016,120.566952
94513,縣立東勢國中,24.250894,120.832342
94514,縣立元長國中,23.645097,120.316927
94515,縣立斗六國中,23.7129929,120.5512165
94516,縣立雲林國中,23.6998721,120.532683
94517,縣立虎尾國中,23.7242456,120.4566637
94518,縣立崇德國中,23.715591,120.4176633
94519,縣立西螺國中,23.7932286,120.4600875
94520,縣立北港國中,23.5657109,120.2991743
94521,縣立建國國中,24.9826898,121.3157472
94522,縣立宜梧國中,23.547177,120.194823
94523,縣立口湖國中,23.5876126,120.1846536
94524,縣立臺西國中,23.700932,120.191577
94525,縣立土庫國中,23.6863634,120.3885703
94527,縣立東和國中,23.6865454,120.5677622
94528,縣立馬光國中,23.693844,120.356008
94529,縣立石榴國中,23.7231027,120.586746
94530,縣立林內國中,23.7559799,120.5936515
94543,縣立東仁國中,23.714138,120.440068
94544,縣立樟湖生態國中(小),23.6041623,120.6321106
101303,私立同濟高中附設國中部,23.604358,120.473369
101304,私立協同高中附設國中部,23.5321684,120.4367027
104319,縣立竹崎高中附設國中部,23.5211813,120.5530783
104326,縣立永慶高中附設國中部,23.46505,120.294687
104501,縣立朴子國中,23.4613476,120.2390451
104502,縣立東石國中,23.4667656,120.2498381
104503,縣立布袋國中,23.3602515,120.1805791
104504,縣立過溝國中,23.421663,120.182961
104505,縣立大林國中,23.608314,120.4549717
104506,縣立新港國中,23.5578448,120.3431122
104507,縣立民雄國中,23.5569592,120.4202614
104508,縣立大吉國中,23.5151489,120.4871826
104509,縣立六嘉國中,23.5012899,120.2915506
104511,縣立太保國中,23.4549092,120.3292685
104512,縣立嘉新國中,23.5003895,120.3780005
104513,縣立溪口國中,23.605513,120.40348
104514,縣立鹿草國中,23.4092448,120.3133825
104515,縣立東榮國中,23.4618236,120.1731929
104516,縣立水上國中,23.4255767,120.3951298
104517,縣立忠和國中,23.4251557,120.4511236
104518,縣立中埔國中,23.4241818,120.52183
104520,縣立昇平國中,23.4853234,120.5577497
144501,縣立新生國中,22.7620417,121.1354095
64530,市立東華國中,24.2053518,120.8403834
64531,市立東新國中,24.2629745,120.8296956
104521,縣立義竹國中,23.3419918,120.2504613
104522,縣立民和國中,23.798001,120.9181474
104523,縣立梅山國中,23.5870139,120.5604861
104524,縣立大埔國中(小),23.2943985,120.5916167
104526,縣立阿里山國中(小),23.468368,120.702171
104527,縣立豐山實驗國中(小),23.5760618,120.7499792
110328,國立南科高級實驗中學附設國中部,23.1060327,120.2922443
111313,私立南光高中附設國中,23.2981915,120.3148321
111320,私立港明高中附設國中,23.1189915,120.1952371
111321,私立興國高中附設國中,23.3128662,120.3223801
111322,私立明達高中附設國中,23.3105731,120.2746819
111323,方濟會學校財團法人臺南市黎明高中附設國中部,23.1733109,120.2471809
111502,私立昭明國中(代用),23.1418954,120.1434133
113501,市立鹽行國中,23.0475,120.24755
114306,市立大灣高中附設國中,23.00666,120.2729047
114307,市立永仁高中附設國中部,23.0036078,120.2402968
114501,市立仁德國中,22.956055,120.247516
114502,市立仁德文賢國中,22.9218797,120.2357843
114503,市立歸仁國中,22.9701939,120.293954
114504,市立關廟國中,22.9607306,120.3243118
114505,市立永康國中,23.02773,120.256216
114508,市立龍崎國中,22.9684964,120.3607674
114509,市立新化國中,23.033537,120.3122308
114510,市立善化國中,23.1471128,120.2879407
114511,市立玉井國中,23.123352,120.47018
114512,市立山上國中,23.103629,120.357791
114513,市立安定國中,23.1141906,120.2336254
114514,市立楠西國中,23.18248,120.4843642
114515,市立新市國中,23.084143,120.2999431
114516,市立南化國中,23.0452909,120.4799909
114517,市立左鎮國中,23.0566892,120.4109154
114518,市立麻豆國中,23.1834869,120.259972
114519,市立下營國中,23.2392777,120.2713999
114520,市立六甲國中,23.2261655,120.3482349
114521,市立官田國中,23.1889614,120.3155184
114522,市立大內國中,23.1123431,120.3647741
114523,市立佳里國中,23.1578538,120.1710495
114524,市立佳興國中,23.1834162,120.1959339
114525,市立學甲國中,23.2368236,120.1834372
114526,市立西港國中,23.1239583,120.2051889
114527,市立將軍國中,23.2066568,120.1511484
114528,市立後港國中,23.1885328,120.1347675
114529,市立竹橋國中,23.1019577,120.1420942
114530,市立北門國中,23.2528342,120.1290336
114531,市立南新國中,23.3090172,120.3089612
114532,市立太子國中,23.291612,120.2712839
114533,市立新東國中,23.3118343,120.3237308
114534,市立鹽水國中,23.3218052,120.263352
114535,市立白河國中,23.361898,120.424179
114536,市立柳營國中,23.2801034,120.3318393
114537,市立東山國中,24.1662931,120.7121387
114538,市立東原國中,23.2726518,120.4522944
144507,縣立初鹿國中,22.8493889,121.0921366
193315,市立東山高中附設國中部,24.1662931,120.7121387
193316,市立惠文高中附設國中部,24.1516147,120.6397871
193501,市立居仁國中,24.1370565,120.6788372
193502,市立雙十國中,24.1531468,120.691521
193504,市立崇倫國中,24.1319343,120.6575395
193505,市立大德國中,24.180111,120.669072
193506,市立北新國中,24.1803955,120.6982701
193507,市立東峰國中,24.126207,120.6858308
193508,市立黎明國中,24.155814,120.6322318
193509,市立光明國中,24.1322703,120.6732226
193510,市立向上國中,24.143377,120.661945
193511,市立育英國中,24.1358576,120.6981982
193512,市立四育國中,24.125529,120.6646223
193514,市立五權國中,24.1553609,120.679227
193516,市立中山國中,25.0606103,121.5455307
193517,市立崇德國中,24.1752046,120.6852771
193518,市立立人國中,24.1715332,120.66999
193519,市立漢口國中,24.1617539,120.6571191
193520,市立安和國中,24.1740334,120.6167303
193521,市立至善國中,24.1747541,120.6407391
193522,市立萬和國中,24.1345956,120.6406948
193523,市立大業國中,24.1538653,120.652153
193524,市立三光國中,24.1672395,120.6984857
193525,市立四張犁國中,24.193558,120.677167
193526,市立福科國中,24.1886941,120.6150045
193527,市立大墩國中,24.1449417,120.6404242
201304,私立興華高中附設國中部,23.4895018,120.4647954
201310,私立嘉華高中附設國中部,23.4835895,120.4767061
201312,私立輔仁高中附設國中部,23.460557,120.456993
201313,私立宏仁女中附設國中部,23.506283,120.445669
203501,市立大業國中,24.1538653,120.652153
203502,市立北興國中,23.4904837,120.4550717
203503,市立嘉義國中,23.4869794,120.4648553
203504,市立南興國中,23.4684365,120.4622065
203505,市立民生國中,25.0597793,121.5667159
203506,市立玉山國中,23.468351,120.4257066
203507,市立蘭潭國中,23.4823173,120.4814193
203508,市立北園國中,23.4951,120.426786
211301,私立長榮高中附設國中部,22.9894128,120.2229561
211304,私立聖功女中附設國中部,23.014844,120.221297
211310,臺南光華學校財團法人臺南市光華高中附設國中,22.988612,120.21739
211315,私立瀛海高中附設國中部,23.0350309,120.2113593
211317,私立崑山高中附設國中部,23.0110042,120.2263303
211318,私立德光高中附設國中部,22.9798586,120.2214007
211320,慈濟學校財團法人臺南市私立慈濟高級中學附設國中部,22.987448,120.179471
213303,市立南寧高中附設國中部,22.935473,120.186614
213316,市立土城高中附設國中部,23.0574603,120.1505744
213501,市立後甲國中,22.9958008,120.2244958
213502,市立忠孝國中,25.051247,121.5082165
213504,市立大成國中,22.978864,120.197917
213505,市立金城國中,22.9931701,120.180648
213506,市立民德國中,23.0054258,120.2053713
213507,市立成功國中,24.0940491,120.6992732
164511,縣立將澳國中,23.3645475,119.525632
164512,縣立七美國中,23.2058329,119.4295092
164513,縣立文光國中,23.5734785,119.5701621
164514,縣立鳥嶼國中,23.6603469,119.660939
171306,私立二信高中附設國中部,25.143902,121.771516
171308,私立聖心高中附設國中部,25.1353145,121.7338675
173304,市立中山高中附設國中部,22.728652,120.2927492
173306,市立安樂高中附設國中部,25.1351392,121.7299807
173307,市立暖暖高中附設國中部,25.1081244,121.737743
173314,市立八斗高中附設國中部,25.140237,121.7882919
173501,市立明德國中,25.1081039,121.51852
173502,市立銘傳國中,25.1236499,121.7502008
173503,市立信義國中,25.028644,121.567577
173505,市立中正國中,25.0323588,121.5219754
173508,市立南榮國中,22.5133707,120.5182968
173509,市立成功國中,24.0940491,120.6992732
173510,市立正濱國中,25.146333,121.763026
173512,市立建德國中,25.1269314,121.7218351
173513,市立百福國中,25.0834942,121.6987487
173515,市立碇內國中,25.0960443,121.7489082
173516,市立武崙國中,25.1377736,121.7062043
180301,國立科學工業園區高中附設國中部,24.777184,121.016432
181305,私立光復高中附設國中部,24.7983869,120.9940563
181306,私立曙光女中附設國中部,24.812185,120.971485
181307,私立磐石高中附設國中部,24.8108193,120.9570734
181502,私立新竹市康橋國中(小),24.768817,120.966208
183306,市立成德高中附設國中部,24.7909191,120.953335
183307,市立香山高中附設國中部,24.785165,120.930349
183313,市立建功高中附設國中部,24.7978951,121.0023113
183501,市立建華國中,24.7941131,120.9766922
183502,市立培英國中,24.7943201,120.9781373
183503,市立光華國中,22.611216,120.3224586
183504,市立育賢國中,24.7901418,120.9656076
183505,市立光武國中,24.7859447,121.0117449
183508,市立南華國中,24.8440256,120.9273741
183509,市立富禮國中,24.7644537,120.9127969
183510,市立三民國中,22.6465942,120.3071577
183511,市立內湖國中,25.077035,121.5886895
183512,市立虎林國中,24.8052619,120.9419437
183514,市立新科國中,24.7802671,121.0241642
183515,市立竹光國中,24.8072882,120.9555983
183516,市立華德福實驗國中(小),24.9242653,121.1830101
191301,私立東大附屬實驗高中附設國中部,24.182282,120.6055347
191302,私立葳格高中附設國中部,24.1785854,120.711852
191305,私立新民高中附設國中部,24.1586929,120.685906
191309,私立明德高中附設國中部,24.120318,120.683671
191311,私立衛道高中附設國中部,24.1830032,120.6750442
191313,私立曉明女中附設國中部,24.168102,120.673388
191314,私立嶺東高中附設國中部,24.138096,120.610281
191315,私立磊川華德福實驗教育學校國中部,24.1804983,120.713242
191503,私立麗喆國中(小),24.1947933,120.6138543
193303,市立忠明高中附設國中部,24.1589341,120.6636692
193313,市立西苑高中附設國中部,24.186534,120.64181
213508,市立延平國中,23.0093658,120.2105446
213509,市立建興國中,22.9892383,120.203141
213510,市立中山國中,25.0606103,121.5455307
213511,市立安平國中,22.99757,120.1683654
213512,市立安南國中,23.0485084,120.1780251
213513,市立安順國中,23.0496474,120.2185004
213514,市立復興國中,22.982395,120.240143
213515,市立新興國中,25.061983,121.525792
213517,市立文賢國中,23.005616,120.1962944
213518,市立崇明國中,22.9697789,120.2255075
213519,市立和順國中,23.0664775,120.2209457
213520,市立海佃國中,23.027696,120.198995
213521,市立九份子國中(小),23.0204748,120.1814906
311401,私立普林思頓高中附設國中部,25.0329636,121.5654268
313301,市立西松高中附設國中部,25.0553554,121.5671134
313302,市立中崙高中附設國中部,25.0487115,121.5611909
313501,市立介壽國中,25.0564253,121.5564352
313502,市立民生國中,25.0597793,121.5667159
313504,市立中山國中,25.0606103,121.5455307
313505,市立敦化國中,25.051541,121.546707
323502,市立興雅國中,25.0364201,121.572237
323503,市立永吉國中,25.0483137,121.5740947
323504,市立瑠公國中,25.037088,121.585339
323505,市立信義國中,25.028644,121.567577
331301,私立延平中學附設國中部,25.0363216,121.5384679
331304,私立復興高中(國中),25.0394418,121.5484403
331502,私立立人國中(小),25.0298352,121.5519283
333301,市立和平高中附設國中部,25.0196314,121.5491522
333304,市立芳和實驗中學附設國中部,25.0329636,121.5654268
333501,市立仁愛國中,25.0374998,121.5506358
333502,市立大安國中,25.030845,121.54617
333505,市立金華國中,25.0312012,121.533178
333506,市立懷生國中,25.0403791,121.5412362
333507,市立民族實驗國中,25.0111994,121.5388404
333508,市立龍門國中,25.0244738,121.5387036
343302,市立大同高中附設國中部,25.0550217,121.5352723
343303,市立大直高中附設國中部,25.07886,121.543375
343502,市立長安國中,25.0495458,121.5319569
343504,市立北安國中,25.0777783,121.5415678
343505,市立新興國中,25.061983,121.525792
343506,市立五常國中,25.0634804,121.543251
343507,市立濱江實驗國中,25.07955,121.5607499
353501,市立螢橋國中,25.0246447,121.5109581
353502,市立古亭國中,25.0246447,121.5109581
353503,市立南門國中,25.0340713,121.508985
353504,市立弘道國中,25.0374875,121.5152934
353505,市立中正國中,25.0323588,121.5219754
361301,私立靜修高中附設國中部,25.057931,121.5154866
363302,市立成淵高中附設國中部,25.0614213,121.5185204
363501,市立建成國中,25.0516653,121.5186171
363502,市立忠孝國中,25.051247,121.5082165
363504,市立民權國中,25.0637369,121.5138782
363506,市立蘭州國中,25.069322,121.516736
363507,市立重慶國中,25.0759168,121.5180299
373302,市立大理高中附設國中部,25.0308614,121.4912045
373501,市立萬華國中,25.0291201,121.4990359
373503,市立雙園國中,25.0275539,121.4926458
373505,市立龍山國中,25.0360766,121.504618
381301,私立東山中學附設國中部,24.9733741,121.5615447
381304,私立再興中學附設國中部,24.9904136,121.5591612
381305,私立景文高中附設國中部,24.985367,121.567397
381306,私立靜心高中附設國中部,24.9988631,121.5467337
383302,市立萬芳高中附設國中部,25.0006248,121.5589135
383501,市立木柵國中,24.98752,121.5676113
383502,市立實踐國中,24.9834041,121.554857
383503,市立北政國中,24.9845598,121.5779958
383504,市立景美國中,24.9931712,121.5429395
383505,市立興福國中,25.0049365,121.5500586
383507,市立景興國中,24.9962215,121.5442841
393301,市立南港高中附設國中部,25.0524116,121.5950264
393501,市立誠正國中,25.054232,121.618819
393503,市立成德國中,25.0449417,121.5876777
400144,國立臺灣戲曲學院(國中),25.0819234,121.586525
401302,私立方濟中學附設國中部,25.0773094,121.5905296
401303,私立達人女中附設國中部,25.0812081,121.5876596
403501,市立內湖國中,25.077035,121.5886895
403502,市立麗山國中,25.0816165,121.5756877
403503,市立三民國中,22.6465942,120.3071577
403504,市立西湖國中,25.0854627,121.5660775
403505,市立東湖國中,25.0721649,121.6194218
403506,市立明湖國中,25.0706196,121.6106431
411301,私立泰北高中附設國中部,25.097375,121.533898
411302,私立衛理女中附設國中部,25.1017466,121.5523894
411303,私立華興中學附設國中部,25.1050855,121.5385223
413501,市立士林國中,25.0944084,121.5226286
413502,市立蘭雅國中,25.110605,121.530897
413504,市立至善國中,24.1747541,120.6407391
413505,市立格致國中,25.1308499,121.546354
413506,市立福安國中,25.1032614,121.4878824
413508,市立天母國中,25.1180479,121.5381925
421301,私立薇閣高中附設國中部,25.1395247,121.5039712
421302,私立幼華高中附設國中部,25.1334354,121.4968537
421303,私立奎山實驗高中附設國中部,25.112998,121.5223028
423501,市立北投國中,25.134874,121.504529
423502,市立新民國中,25.1382345,121.5063989
423503,市立明德國中,25.1081039,121.51852
423504,市立桃源國中,25.1347115,121.477338
423505,市立石牌國中,25.1149914,121.5141752
423506,市立關渡國中,25.1198994,121.4671378
513501,市立鹽埕國中,22.62268,120.288063
521301,私立明誠高中附設國中部,22.666246,120.292014
521303,私立大榮高中附設國中部,22.6535429,120.2801989
523301,市立鼓山高中附設國中部,22.6520055,120.2747089
523502,市立壽山國中,22.6331988,120.2784858
523503,市立明華國中,22.6619921,120.3011808
523504,市立七賢國中,22.6582398,120.2893006
533501,市立左營國中,22.6789832,120.3065701
533502,市立大義國中,22.6744924,120.2926403
533503,市立立德國中,22.6902706,120.2911296
533504,市立龍華國中,22.6582679,120.3090667
533505,市立福山國中,22.6810596,120.3147648
533506,市立文府國中,22.6916224,120.316639
543501,市立楠梓國中,22.7352521,120.3273655
543502,市立右昌國中,22.713857,120.2866439
543503,市立後勁國中,22.7224362,120.3160079
543504,市立國昌國中,22.7190654,120.2855881
543505,市立翠屏國中(小),22.7287207,120.2993544
551301,私立立志高中附設國中部,22.6533576,120.3264762
551303,私立南海月光實驗教育學校國中部,22.6350591,120.3355193
553501,市立鼎金國中,22.6557272,120.3206134
553502,市立三民國中,22.6465942,120.3071577
553503,市立民族國中,25.0111994,121.5388404
553504,市立陽明國中,22.6430211,120.3403786
553505,市立正興國中,22.6440037,120.3202613
563301,市立新興高中附設國中部,22.6243825,120.3041272
573501,市立前金國中,22.6295108,120.2907275
580301,國立高師附中附設國中部,22.6260694,120.3222549
581301,私立復華高中附設國中部,22.621182,120.313424
581302,私立道明中學附設國中部,22.6338273,120.3228343
583301,市立中正高中附設國中部,22.6264157,120.3387528
583501,市立苓雅國中,22.618865,120.3062227
583502,市立五福國中,22.6290226,120.3170276
583503,市立大仁國中,22.6328466,120.3295691
583505,市立英明國中,22.6152283,120.3245424
593302,市立瑞祥高中附設國中部,22.6016779,120.3248846
593501,市立獅甲國中,22.6051402,120.3082764
593502,市立前鎮國中,22.5826842,120.3209996
593503,市立瑞豐國中,22.6111245,120.3313247
593504,市立光華國中,22.611216,120.3224586
593505,市立興仁國中,22.5861529,120.313349
603501,市立旗津國中,22.5892428,120.2867117
610405,國立高雄餐旅大學附屬餐旅高中附設國中部,22.566209,120.371733
613501,市立小港國中,22.5662551,120.3384083
613502,市立鳳林國中,23.7444815,121.4489814
613503,市立中山國中,25.0606103,121.5455307
613504,市立明義國中,22.5818301,120.3689451
714501,縣立金城國中,24.4314362,118.3129128
714502,縣立金湖國中,24.4368176,118.4222112
714503,縣立金寧國中(小),24.457112,118.327566
714504,縣立金沙國中,24.4900719,118.4151699
714505,縣立烈嶼國中,24.4302929,118.2420983
724501,縣立介壽國中(小),26.1605191,119.9500716
724502,縣立中正國中(小),22.6720999,120.5086289
724503,縣立中山國中,26.2242954,119.9806588
724504,縣立敬恆國中(小),25.9706323,119.9336772
724505,縣立東引國中(小),26.3680983,120.4885787
11301,私立淡江高中附設國小部,25.1748993,121.4359557
11302,私立康橋實驗高中附設國小部,24.9120394,121.4958652
11307,私立裕德實驗高中附設國小部,24.9830118,121.4394801
11330,私立林口康橋高中附設國小部,25.0741868,121.389928
11601,私立育才國小,25.007022,121.521715
11602,私立聖心國小,25.134473,121.450429
11603,私立及人國小,25.0156533,121.5118716
11604,私立竹林國小,24.9799565,121.5057743
11606,信賢種籽親子實小,24.838942,121.52862
13601,市立北大國小,24.9391245,121.3732293
13602,市立新林國小,25.0697467,121.3590601
14601,市立板橋國小,25.0116333,121.4583053
14602,市立國光國小,25.0191826,121.4530228
14603,市立新埔國小,25.0182479,121.306454
14604,市立埔墘國小,25.0181471,121.4741019
14605,市立莒光國小,22.7116034,120.2952757
14606,市立後埔國小,25.0031578,121.4633736
14607,市立海山國小,25.009392,121.47092
14608,市立江翠國小,25.032317,121.474133
14610,市立文聖國小,25.0291921,121.4776744
14611,市立沙崙國小,24.9898701,121.4301153
14612,市立文德國小,22.640365,120.35399
14613,市立樹林國小,24.9898163,121.4180796
14614,市立文林國小,25.1059061,121.5147455
14615,市立大同國小,25.0650081,121.5168867
14616,市立武林國小,25.001952,121.4147243
14617,市立山佳國小,24.9754914,121.4017467
14618,市立育德國小,24.9708725,121.3925043
14619,市立柑園國小,24.9557548,121.390047
14620,市立鶯歌國小,24.9511444,121.3459083
14621,市立二橋國小,24.9410772,121.3377567
14622,市立中湖國小,24.9728344,121.3479281
14623,市立鳳鳴國小,24.969172,121.334826
14624,市立三峽國小,24.9356959,121.3678873
14813,市立達觀國(中)小,24.9536053,121.5000233
34784,市立文欣國小,25.05737,121.3720016
64706,市立內新國小,24.1113864,120.6957233
84680,縣立永康國小,23.0259331,120.2559899
104712,縣立義仁國小,23.5082972,120.4993009
134611,縣立唐榮國小,22.671915,120.486059
154676,縣立吳江國小,23.2789328,121.3225302
353608,臺北市立大學附小,25.0359824,121.5159075
363601,市立蓬萊國小,25.0563873,121.5157097
363602,市立日新國小,25.0544041,121.5164821
363603,市立太平國小,25.061383,121.511449
363604,市立永樂國小,25.061297,121.5110848
363605,市立雙蓮國小,25.0601155,121.5167044
363606,市立大同國小,25.0650081,121.5168867
363607,市立大龍國小,25.0738189,121.5168374
363608,市立延平國小,25.0666472,121.5124288
363609,市立大橋國小,25.0640328,121.5125477
371601,私立光仁小學,25.0214493,121.4996173
373601,市立新和國小,25.0259789,121.5033178
373602,市立雙園國小,25.0308536,121.4981343
373603,市立東園國小,25.022978,121.497962
373604,市立大理國小,25.0311567,121.4930584
373605,市立西園國小,25.0272171,121.4986169
373606,市立萬大國小,25.0229522,121.4993207
373607,市立華江國小,25.0340923,121.4912626
373608,市立西門國小,24.8026873,120.9599958
373609,市立老松國小,25.0380886,121.5026129
373610,市立龍山國小,25.0356648,121.4961552
373611,市立福星國小,25.0467891,121.508879
380601,國立政大實小,24.9845888,121.5798589
381306,私立靜心高中附設國小部,24.9985777,121.5469195
381602,私立中山小學,24.9883007,121.556328
381603,私立再興小學,24.9895567,121.55811
383601,市立景美國小,24.9895171,121.5407883
383602,市立武功國小,25.0038887,121.5404927
383603,市立興德國小,25.0016269,121.5508457
383604,市立溪口國小,24.99413,121.5387574
383605,市立興隆國小,25.002501,121.5519018
383606,市立志清國小,24.9985863,121.5388826
383607,市立景興國小,24.9831947,121.557268
383608,市立木柵國小,24.9902695,121.5701489
383609,市立永建國小,24.9892433,121.5553845
383610,市立實踐國小,24.9831947,121.557268
24639,縣立大湖國小,25.0579744,121.3600016
164608,縣立山水國小,23.5219155,119.595607
383611,市立博嘉實驗國小,25.0017834,121.5758738
383612,市立指南國小,24.976225,121.583622
14814,市立桃子腳國(中)小,24.948918,121.382898
14815,市立龍埔國小,24.941131,121.3773909
14816,市立頭湖國小,25.082093,121.372962
14817,市立新市國小,23.0790019,120.2955476
21310,私立中道高中附設國小部,24.7597787,121.7937987
24325,縣立慈心華德福實驗高中附設國小部,24.6268113,121.795708
24601,縣立中山國小,24.0818409,120.5461194
24602,縣立宜蘭國小,24.7528618,121.7542746
24603,縣立力行國小,24.9809649,121.5611466
24604,縣立新生國小,25.0296774,121.5332977
24605,縣立光復國小,24.754525,121.747082
24606,縣立育才國小,25.007022,121.521715
24607,縣立凱旋國小,24.7244611,121.763175
24608,縣立黎明國小,24.7519701,121.7642722
24609,縣立南屏國小,24.754188,121.743138
24610,縣立羅東國小,24.6728268,121.7724581
24611,縣立成功國小,25.0856724,121.457378
24612,縣立公正國小,24.6786628,121.7662622
24613,縣立北成國小,24.675006,121.7590891
24614,縣立竹林國小,24.6886931,121.766069
24615,縣立蘇澳國小,24.5961603,121.8417704
24616,縣立馬賽國小,24.6215957,121.8345477
24617,縣立蓬萊國小,24.5436111,120.9711111
24618,縣立士敏國小,24.592244,121.853292
24619,縣立永樂國小,25.061297,121.5110848
24620,縣立南安國小,23.0981728,120.2249417
24621,縣立岳明國小,24.613884,121.8533214
24622,縣立育英國小,23.9526956,120.5741008
24623,縣立頭城國小,24.8629826,121.8273255
24624,縣立竹安國小,24.825115,121.820763
24625,縣立二城國小,24.8436838,121.8049688
24626,縣立大溪國小,24.884568,121.28689
24627,縣立大里國小,24.100547,120.677017
24628,縣立梗枋國小,24.9005705,121.8622753
24629,縣立礁溪國小,24.8214103,121.7695196
24630,縣立四結國小,24.7862956,121.7597673
24631,縣立龍潭國小,23.0334677,120.2677841
24632,縣立玉田國小,24.7963667,121.7903222
24633,縣立三民國小,24.0857432,120.6045475
24634,縣立員山國小,24.7436775,121.7225081
24635,縣立深溝國小,24.723263,121.723851
24636,縣立七賢國小,24.7197321,121.743149
24637,縣立同樂國小,24.762946,121.728958
24638,縣立湖山國小,24.7794478,121.6996482
34785,市立雙龍國小,24.8572912,121.215179
34786,市立龍安國小,25.0239196,121.5349274
34787,市立長庚國小,25.0613596,121.3864968
34788,市立仁和國小,24.8967059,121.2776433
34789,市立大湖國小,25.0876445,121.6011865
41601,私立上智國小,24.7414701,121.0845491
41602,私立康乃薾國(中)小,24.8053098,121.0361385
44601,縣立關西國小,24.791938,121.174602
44602,縣立東安國小,24.7894615,121.1832634
44603,縣立石光國小,24.8142928,121.1291033
44604,縣立坪林國小,24.8011319,121.1406594
44605,縣立南和國小,24.4480695,120.7208047
44606,縣立太平國小,24.82623,121.118874
44607,縣立東光國小,22.9914889,120.2299965
44608,縣立錦山國小,23.3827368,120.1930311
44609,縣立玉山國小,24.7581248,121.2088363
44610,縣立新埔國小,25.0182479,121.306454
44611,縣立新星國小,24.8300615,121.0733648
44612,縣立照門國小,24.8467296,121.1176645
44613,縣立清水國小,24.2666965,120.5733603
44614,縣立照東國小,24.8448406,121.1413545
44615,縣立北平華德福實驗學校(國小),24.8524659,121.0863555
44616,縣立枋寮國小,24.8368194,121.0516139
44617,縣立寶石國小,24.81641,121.078693
44618,縣立文山國小,24.1493214,120.6153696
44619,縣立竹東國小,24.7356205,121.0882209
44620,縣立中山國小,24.0818409,120.5461194
44621,縣立大同國小,23.4609947,120.2404938
44622,縣立二重國小,24.7681457,121.0573418
44623,縣立竹中國小,24.7808239,121.029951
44624,縣立員崠國小,24.7134804,121.0986052
44625,縣立陸豐國小,24.7658907,121.0774899
44626,縣立瑞峰國小,24.1686556,120.5737781
44627,縣立竹北國小,24.838088,121.0019977
44628,縣立中正國小,24.8365624,121.0190117
44629,縣立竹仁國小,24.8366975,121.0130793
44630,縣立新社國小,24.8435013,120.9988834
44631,縣立六家國小,24.813635,121.0256686
44632,縣立東海國小,22.7525472,121.1401512
44633,縣立豐田國小,24.3246182,120.8235766
44634,縣立麻園國小,24.846715,120.9771625
44635,縣立新港國小,23.5559483,120.3449036
44636,縣立鳳岡國小,24.8613611,120.9643083
44637,縣立新湖國小,24.905953,121.047594
44638,縣立和興國小,24.92695,121.038605
134612,縣立民和國小,22.6706675,120.4957009
134613,縣立建國國小,24.6954689,120.9121467
134614,縣立復興國小,24.989664,121.501898
134615,縣立忠孝國小,24.1374496,120.6741191
134616,縣立和平國小,24.3080115,121.7486858
134617,縣立萬丹國小,22.5830878,120.4888558
134618,縣立新庄國小,24.1044444,120.5336111
134619,縣立興華國小,23.891587,120.3954139
134620,縣立新興國小,25.1797101,121.4400679
134621,縣立社皮國小,22.6147395,120.4680764
134622,縣立廣安國小,22.6151914,120.4901231
134623,縣立興化國小,25.065854,121.461594
134624,縣立麟洛國小,22.6476715,120.5226398
134625,縣立九如國小,22.726176,120.4865037
134626,縣立後庄國小,24.6963826,120.898353
134627,縣立惠農國小,22.724195,120.498925
134628,縣立長興國小,22.6770664,120.526139
134629,縣立繁華國小,22.7020615,120.572229
134630,縣立德協國小,22.6931331,120.5414935
134631,縣立鹽埔國小,22.735516,120.582577
134632,縣立仕絨國小,22.7582294,120.5589401
134633,縣立高朗國小,22.735516,120.582577
134634,縣立新圍國小,22.73827,120.553884
134635,縣立彭厝國小,22.7395833,120.5317694
134636,縣立振興國小,22.7256497,120.6099887
134637,縣立高樹國小,22.8261684,120.5990941
134638,縣立舊寮國小,22.8485893,120.6098805
134639,縣立新豐國小,24.9010996,120.9876841
134640,縣立田子國小,22.8039718,120.5773749
134641,縣立新南國小,24.6882972,120.8848367
134642,縣立泰山國小,25.0614848,121.4315562
134644,縣立大路關國(中)小,22.7391341,120.6204884
134646,縣立里港國小,22.780715,120.494283
134647,縣立載興國小,22.77829,120.5244913
134648,縣立土庫國小,23.6763322,120.3887924
134649,縣立三和國小,23.7509249,120.4085744
134651,縣立潮州國小,22.548743,120.541158
134652,縣立光春國小,22.5407626,120.5367683
134653,縣立光華國小,25.0178239,121.4251486
134654,縣立四林國小,22.545251,120.569339
134655,縣立潮南國小,22.5124049,120.537141
134656,縣立潮東國小,22.523007,120.560309
134657,縣立萬巒國小,22.5719275,120.5730061
64751,市立葫蘆墩國小,24.2609913,120.7145968
114616,市立崇和國小,22.9041635,120.3518261
134658,縣立五溝國小,22.5908,120.5937111
154677,縣立學田國小,23.155093,121.2270436
154678,縣立永豐國小,23.1549908,121.2663286
154679,縣立萬寧國小,23.2536723,121.2982189
154680,縣立東竹國小,23.2146752,121.2793207
154681,縣立秀林國小,24.1181219,121.6247748
154682,縣立富世國小,24.147461,121.629103
154683,縣立崇德國小,24.1619088,121.6527298
154684,縣立和平國小,24.3080115,121.7486858
154685,縣立景美國小,24.9895171,121.5407883
154686,縣立三棧國小,24.1028756,121.6065521
154687,縣立佳民國小,24.053999,121.59939
154688,縣立銅門國小,23.9653793,121.4935065
154689,縣立水源國小,25.1858379,121.4765516
154690,縣立銅蘭國小,23.94722,121.507457
154691,縣立文蘭國小,23.9216222,121.5013667
154692,縣立萬榮國小,23.7155611,121.4107129
154693,縣立明利國小,23.7056068,121.4129382
154694,縣立見晴國小,23.783286,121.4519549
154695,縣立馬遠國小,23.5768819,121.3619269
154696,縣立西林國小,23.8112105,121.4405298
154697,縣立紅葉國小,22.8935823,121.0637541
154698,縣立卓溪國小,23.3458184,121.3034948
154699,縣立崙山國小,23.438375,121.344123
154700,縣立立山國小,23.4304438,121.3207428
154701,縣立太平國小,24.82623,121.118874
154702,縣立卓清國小,23.278301,121.272734
154703,縣立卓樂國小,23.2959573,121.2681498
154704,縣立古風國小,23.438375,121.344123
154705,縣立奇美國小,23.4969819,121.4461535
154706,縣立卓楓國小,23.2437722,121.2719583
154707,縣立西富國小,23.6366536,121.4297241
154708,縣立大興國小,24.0265675,120.4729903
154710,縣立西寶國小,24.2069084,121.4825358
154711,縣立中原國小,24.9562634,121.2381042
164601,縣立馬公國小,23.570679,119.5690004
164602,縣立中正國小,24.8365624,121.0190117
164603,縣立中興國小,24.8666921,121.0284066
164604,縣立中山國小,24.0818409,120.5461194
164605,縣立石泉國小,23.560112,119.59497
164606,縣立東衛國小,23.5715922,119.6026563
164607,縣立興仁國小,24.9678329,121.2623706
64707,市立崇光國小,24.115106,120.684624
64708,市立塗城國小,24.0924206,120.7008628
64709,市立瑞城國小,22.606092,120.336986
64710,市立健民國小,24.0895518,120.7279722
64711,市立草湖國小,24.0782121,120.6902161
64712,市立霧峰國小,24.057474,120.698239
64713,市立僑榮國小,24.070178,120.702854
64714,市立四德國小,24.0608108,120.6676656
64715,市立五福國小,22.589904,120.325942
64716,市立萬豐國小,23.9471405,121.075903
64717,市立峰谷國小,24.0350895,120.7253576
64718,市立桐林國小,24.0659672,120.7356044
64719,市立復興國小,24.989664,121.501898
64720,市立光正國小,24.0362949,120.6682975
64721,市立太平區太平國小,24.1283043,120.7174816
64722,市立宜欣國小,24.1395638,120.7150637
64723,市立新光國小,24.1594747,120.7069635
64724,市立坪林國小,24.9360466,121.7107604
64725,市立光隆國小,24.1047268,120.7278629
64726,市立黃竹國小,24.0838,120.752443
64727,市立頭汴國小,24.1232162,120.7514631
64728,市立東汴國小,24.1174806,120.7955028
64729,市立和平區和平國小,24.17115,120.8957071
64730,市立福民國小,24.1635936,120.8809348
64731,市立白冷國小,24.183213,120.9304396
64732,市立博屋瑪國小,24.1477358,120.6736482
64733,市立中坑國小,24.23666,120.880228
64734,市立平等國小,25.1288022,121.5767074
64735,市立博愛國小,25.0363471,121.5708752
64736,市立自由國小,24.2913518,120.909277
64737,市立梨山國(中)小,24.255672,121.25945
64738,市立益民國小,24.1067627,120.6872891
64739,市立槺榔國小,24.264164,120.545611
64740,市立建平國小,24.1241551,120.7246908
64741,市立潭陽國小,24.2130244,120.7099309
64742,市立太平區中華國小,24.1472186,120.7259107
64743,市立九德國小,24.1096894,120.6386086
64744,市立中港國小,25.0451722,121.4470861
64745,市立東平國小,24.1323535,120.7235517
64746,市立文雅國小,24.2200171,120.646088
64747,市立新盛國小,24.243515,120.831833
64748,市立大元國小,24.1006796,120.6897373
64749,市立吉峰國小,24.0798421,120.7187598
64750,市立新平國小,24.154775,120.719806
84681,縣立清水國小,24.2666965,120.5733603
84682,縣立至誠國小,23.8933991,120.720726
84683,縣立永和國小,25.0033711,121.516948
84684,縣立廣福國小,24.9867141,121.4543506
84687,縣立魚池國小,23.8994234,120.9370534
84688,縣立頭社國小,23.8374817,120.902559
84689,縣立東光國小,22.9914889,120.2299965
84690,縣立五城國小,23.890552,120.889232
84691,縣立明潭國小,23.8682513,120.9110706
84693,縣立新城國小,24.7341896,120.9678223
84694,縣立伊達邵國小,23.8485721,120.9354304
84695,縣立共和國小,23.9190792,120.9660533
84696,縣立國姓國小,24.0393295,120.856947
84697,縣立北山國小,23.9809056,120.8766167
84698,縣立北港國小,25.0888467,121.6452485
84699,縣立福龜國小,24.0115344,120.8224258
84700,縣立長流國小,24.0664502,120.8766291
84701,縣立南港國小,25.0571037,121.6105787
84702,縣立育樂國小,24.0178049,120.8454136
84703,縣立港源國小,23.9281994,120.8661088
84704,縣立長福國小,24.093055,120.887346
84705,縣立乾峰國小,24.027842,120.8252871
84706,縣立水里國小,23.810296,120.8551512
84707,縣立郡坑國小,23.7372543,120.855816
84708,縣立民和國小,22.6706675,120.4957009
84709,縣立新興國小,25.1797101,121.4400679
84711,縣立永興國小,23.925256,120.5666106
84714,縣立成城國小,23.819057,120.8481325
84716,縣立信義國小,23.6976412,120.8545409
84717,縣立羅娜國小,23.6278285,120.8706286
84718,縣立同富國小,23.5938889,120.8883333
84719,縣立愛國國小,23.6939516,120.8486135
84720,縣立人和國小,23.7793361,120.8969902
84721,縣立地利國小,23.8213368,120.9402127
84722,縣立東埔國小,23.5619353,120.9276267
84724,縣立潭南國小,23.8213368,120.9402127
84727,縣立桐林國小,23.5602838,120.8749235
84728,縣立隆華國小,23.5629369,120.8678826
84729,縣立希娜巴嵐國小,23.6400176,120.8695668
84730,縣立久美國小,23.6158333,120.8841667
84731,縣立雙龍國小,24.8572912,121.215179
84732,縣立豐丘國小,23.6698746,120.8748086
84733,縣立仁愛國小,25.091225,121.470527
84734,縣立親愛國小,23.9682604,121.1090048
84735,縣立法治國小,23.91662,121.046736
104713,縣立沙坑國小,24.739621,121.162371
104715,縣立梅山國小,23.5804346,120.5592435
104716,縣立梅圳國小,23.5767816,120.5902139
104717,縣立太平國小,24.82623,121.118874
104719,縣立太興國小,23.542453,120.634285
104720,縣立瑞里國小,23.5399518,120.6654652
104721,縣立大南國小,23.5580691,120.554204
104722,縣立瑞峰國小,24.1686556,120.5737781
104724,縣立太和國小,23.5338258,120.7214546
104725,縣立仁和國小,24.8967059,121.2776433
104726,縣立大埔國(中)小,23.2943985,120.5916167
104727,縣立達邦國小,23.453213,120.7491689
104729,縣立十字國小,23.492296,120.753933
104730,縣立來吉國小,23.5297608,120.7398067
104731,縣立豐山實驗國(中)小,23.576085,120.749962
104732,縣立山美國小,23.383173,120.668232
104733,縣立新美國小,23.33766,120.68316
104734,縣立阿里山國(中)小,23.492296,120.753933
104735,縣立香林國小,23.5163768,120.8085021
104736,縣立布新國小,23.3788783,120.152458
104737,縣立茶山國小,23.300178,120.666564
104738,縣立和興國小,24.92695,121.038605
104739,縣立平林國小,23.599962,120.461603
104740,縣立梅北國小,23.5874596,120.5521069
104742,縣立祥和國小,23.4568125,120.288054
104743,縣立福樂國小,23.528949,120.452073
110328,國立南科高級實驗中學附設國小部,23.1050459,120.2896634
114601,市立仁德國小,22.9620775,120.2537785
114602,市立文賢國小,22.9079103,120.2132254
114603,市立長興國小,22.9904249,120.2605322
114604,市立依仁國小,22.9129684,120.2611889
114605,市立大甲國小,24.3508271,120.6263633
114606,市立仁和國小,24.8967059,121.2776433
114607,市立德南國小,22.948759,120.251143
114608,市立虎山實驗小學,22.9454506,120.2299063
114609,市立歸仁國小,22.9705429,120.2967334
114610,市立歸南國小,22.9638483,120.2878261
114611,市立保西國小,22.9924807,120.2934525
114612,市立大潭國小,22.9143271,120.2716255
114613,市立關廟國小,22.956979,120.3310449
114614,市立五甲國小,22.5981505,120.3339649
114615,市立保東國小,22.9943772,120.3087629
14625,市立大埔國小,24.905644,121.366478
14626,市立民義國小,24.9118949,121.375543
14627,市立成福國小,24.933094,121.405542
14628,市立大成國小,24.0912033,120.5475412
14629,市立建安國小,25.0293537,121.546212
14630,市立插角國小,24.872164,121.405296
14631,市立有木國小,24.8537564,121.4371211
14632,市立五寮國小,24.8589276,121.3597716
14633,市立中和國小,24.9999388,121.5015935
14634,市立復興國小,24.989664,121.501898
14635,市立興南國小,24.9869863,121.5095508
14636,市立秀山國小,24.9943296,121.520873
14637,市立積穗國小,24.99916,121.4814609
14638,市立自強國小,24.9983879,121.471818
14639,市立錦和國小,24.9893057,121.4896119
14640,市立景新國小,24.9895503,121.5157675
14641,市立永和國小,25.0033711,121.516948
14642,市立秀朗國小,24.9996278,121.5219896
14643,市立頂溪國小,25.015532,121.511603
14644,市立網溪國小,25.0130556,121.5194444
14645,市立永平國小,25.008155,121.5052769
14646,市立土城國小,24.972563,121.4424728
14647,市立清水國小,24.2666965,120.5733603
14648,市立頂埔國小,24.9562302,121.4144033
14649,市立廣福國小,24.9848126,121.4471127
14650,市立汐止國小,25.0667758,121.6550344
14651,市立長安國小,25.0495306,121.5301139
14652,市立保長國小,25.071773,121.680851
14653,市立崇德國小,25.0695778,121.6691866
14654,市立北港國小,25.0888467,121.6452485
14655,市立北峰國小,25.0636712,121.6324198
14656,市立東山國小,25.0600444,121.7000861
14657,市立白雲國小,25.04766,121.618851
14658,市立萬里國小,25.1761066,121.6881873
14659,市立野柳國小,25.2054436,121.6893652
14660,市立大鵬國小,24.1780307,120.6654578
14661,市立大坪國小,25.167115,121.63845
14662,市立崁腳國小,25.16038,121.64937
14663,市立金山國小,25.222905,121.636599
14664,市立中角國小,25.239723,121.630602
14665,市立三和國小,24.2193616,120.6673885
14666,市立新店國小,24.9530138,121.5403764
14667,市立直潭國小,24.9377936,121.5309584
14668,市立青潭國小,24.9527542,121.5529842
24640,縣立內城國(中)小,24.7188831,121.6875013
24643,縣立壯圍國小,24.801586,121.8144454
24644,縣立古亭國小,24.7712866,121.7982169
24645,縣立公館國小,24.4994036,120.8277823
24646,縣立過嶺國小,24.759,121.81459
24647,縣立大福國小,24.801586,121.8144454
24648,縣立新南國小,24.6882972,120.8848367
24649,縣立五結國小,24.687331,121.7991388
24650,縣立學進國小,24.7066136,121.7712162
24651,縣立中興國小,24.8666921,121.0284066
24652,縣立利澤國小,24.665638,121.827228
24653,縣立孝威國小,24.6966747,121.8114368
24654,縣立冬山國小,24.6325383,121.7897817
24655,縣立東興國小,24.8048308,121.0322829
24656,縣立順安國小,24.6550203,121.7633917
24657,縣立武淵國小,24.6613833,121.7979657
24658,縣立廣興國小,23.8757154,120.3622956
24659,縣立大進國小,24.6336259,121.7159821
24660,縣立柯林國小,24.6761111,121.7312889
24661,縣立三星國小,24.6664834,121.6496762
24662,縣立大洲國小,24.6615049,121.6189375
24663,縣立憲明國小,24.6615049,121.6189375
24664,縣立萬富國小,24.6794674,121.6886268
24665,縣立大隱國小,24.6681158,121.7128583
24668,縣立四季國小,24.4874013,121.4266877
24669,縣立南山國小,24.4378986,121.3804702
24670,縣立大同國小,23.4609947,120.2404938
24671,縣立寒溪國小,24.6096865,121.6871673
24672,縣立南澳國小,24.4672359,121.8011813
24673,縣立碧候國小,24.4741303,121.7847646
24674,縣立武塔國小,24.4452137,121.7776212
24675,縣立澳花國小,24.329409,121.739711
24676,縣立東澳國小,24.5216936,121.8325507
24677,縣立金岳國小,24.4452137,121.7776212
24678,縣立金洋國小,24.4259751,121.7491995
24698,縣立人文國(中)小,24.8599032,121.8197845
24701,縣立清溝國小,24.6644194,121.7640437
31320,私立新興高中附設國小部,25.015846,121.284961
31326,私立大華高中附設國小部,24.882732,121.1744393
31601,私立福祿貝爾國小,24.8537321,121.214521
31602,私立諾瓦國小,24.8445217,121.177671
31603,私立有得國(中)小,24.98035,121.251597
31604,私立康萊爾國(中)小,24.999609,121.2966179
33602,市立青園國小,25.0177213,121.2178072
44639,縣立信勢國小,24.8991651,121.0386613
44640,縣立湖口國小,24.878652,121.0602196
44641,縣立山崎國小,24.8718997,120.9986242
44642,縣立長安國小,25.0495306,121.5301139
44643,縣立中興國小,24.8666921,121.0284066
44644,縣立華興國小,24.8741105,121.020391
44645,縣立橫山國小,22.7685564,120.379669
44646,縣立田寮國小,24.7049539,121.1058343
44647,縣立大肚國小,24.1538258,120.546625
44648,縣立沙坑國小,24.739621,121.162371
44649,縣立內灣國小,24.704291,121.1833589
44650,縣立福興國小,23.919426,120.523156
44651,縣立新豐國小,24.9010996,120.9876841
44652,縣立瑞興國小,24.911608,121.010036
44653,縣立福龍國小,24.930311,121.0358393
44654,縣立埔和國小,24.9210228,120.9820754
44655,縣立芎林國小,24.7741592,121.0824151
44656,縣立碧潭國小,24.7464349,121.1031896
44657,縣立五龍國小,24.737279,121.1231545
44658,縣立寶山國小,23.9865022,120.6400623
44659,縣立新城國小,24.7341896,120.9678223
44660,縣立雙溪國小,25.0334837,121.8666176
44662,縣立北埔國小,24.7009332,121.0534715
44663,縣立大坪國小,25.167115,121.63845
44664,縣立峨眉國小,24.6888377,121.0201372
44665,縣立富興國小,24.6868561,120.988412
44666,縣立尖石國小,24.7284434,121.226328
44667,縣立嘉興國小,24.7051821,121.2105623
44668,縣立新樂國小,24.7320013,121.2507334
44669,縣立梅花國小,24.6775901,121.2088282
44670,縣立錦屏國小,23.131452,121.17642
44671,縣立玉峰國小,24.6600107,121.3013028
44672,縣立石磊國小,24.6556578,121.3264284
44673,縣立秀巒國小,24.6182125,121.2856127
44674,縣立新光國小,24.1594747,120.7069635
44675,縣立五峰國小,24.631476,121.118064
44676,縣立桃山國小,23.9865022,120.6400623
44677,縣立花園國小,24.6482711,121.1514399
44678,縣立博愛國小,24.8307717,121.005376
44679,縣立上舘國小,24.7254894,121.087497
44680,縣立光明國小,24.8245495,121.0105586
44681,縣立松林國小,24.86971,120.9911206
44682,縣立十興國小,24.8241481,121.0240134
44683,縣立興隆國小,24.8168288,121.0154557
64752,市立永隆國小,24.1113468,120.6773257
64753,市立美群國小,24.084087,120.7087236
64754,市立吳厝國小,24.267391,120.602745
64755,市立山陽國小,24.163617,120.544302
64756,市立立新國小,24.10532,120.699433
64757,市立大德國小,24.2435748,120.5426484
64758,市立車籠埔國小,24.1099495,120.7319265
64759,市立福陽國小,24.242784,120.73593
64760,市立頭家國小,24.1968012,120.695849
64761,市立瑞井國小,24.1591692,120.5673507
64762,市立東新國小,25.056042,121.60211
64763,市立光復國(中)小,25.040623,121.557962
64764,市立長億國小,24.113251,120.7154188
64765,市立六寶國小,24.238212,120.635781
74601,縣立中山國小,24.0818409,120.5461194
74602,縣立民生國小,24.0841236,120.5423543
74603,縣立平和國小,24.0720502,120.53547
74604,縣立南郭國小,24.0714035,120.5473633
74605,縣立南興國小,24.0583258,120.5333067
74606,縣立東芳國小,24.0625381,120.5163455
74607,縣立泰和國小,24.0927555,120.5523523
74608,縣立三民國小,24.0857432,120.6045475
74609,縣立聯興國小,24.0766815,120.5985042
74610,縣立大竹國小,24.0828302,120.5800724
74611,縣立國聖國小,24.092292,120.5680891
74612,縣立快官國小,24.0684224,120.6120132
74613,縣立石牌國小,24.0586458,120.6145224
74614,縣立忠孝國小,24.1374496,120.6741191
74615,縣立芬園國小,24.0275155,120.6194502
74616,縣立富山國小,24.0275155,120.6194502
74617,縣立寶山國小,23.9865022,120.6400623
74618,縣立同安國小,25.0218407,121.2979808
74619,縣立文德國小,23.9634731,120.6284668
74620,縣立茄荖國小,24.0146333,120.6431194
74621,縣立花壇國小,24.026192,120.543035
74622,縣立文祥國小,24.0255249,120.5267803
74623,縣立華南國小,23.5963772,120.5745874
74624,縣立僑愛國小,24.9204205,121.2928708
74625,縣立三春國小,24.0166667,120.5661111
74626,縣立白沙國小,24.047521,120.5451958
74627,縣立和美國小,24.1116469,120.495808
74628,縣立和東國小,24.10871,120.501623
74629,縣立大嘉國小,24.096793,120.511712
74630,縣立大榮國小,24.088163,120.501795
84736,縣立德鹿谷國小,23.748885,120.751526
84737,縣立互助國小,24.063237,120.969669
84738,縣立力行國小,24.9809649,121.5611466
84739,縣立南豐國小,24.0000355,121.078475
84740,縣立中正國小,24.8365624,121.0190117
84741,縣立廬山國小,24.0350004,121.1860228
84742,縣立發祥國小,24.122492,121.1571921
84743,縣立萬豐國小,23.9471405,121.075903
84744,縣立都達國小,24.0594756,121.1919766
84745,縣立春陽國小,24.0278047,121.1484864
84746,縣立紅葉國小,22.8935823,121.0637541
84747,縣立清境國小,24.0446608,121.1586892
84748,縣立漳興國小,23.9187468,120.6812545
84749,縣立虎山國小,23.9629889,120.6841639
84750,縣立康壽國小,23.9129035,120.6847191
84751,縣立前山國小,23.7516432,120.6783792
91601,私立維多利亞小學,23.6792477,120.5525393
91602,私立福智國小,23.6348385,120.5209573
91603,私立福智實驗國小,23.6348385,120.5209573
94601,縣立鎮西國小,23.7077025,120.5386118
94602,縣立鎮東國小,23.7117457,120.5523106
94603,縣立溝壩國小,23.673783,120.5374832
94604,縣立梅林國小,23.702307,120.6016593
94605,縣立石榴國小,23.7208504,120.5845865
94606,縣立溪洲國小,23.740902,120.5550729
94607,縣立林頭國小,23.7044509,120.5572041
94608,縣立保長國小,23.705919,120.517326
94609,縣立鎮南國小,23.6983782,120.5393628
94610,縣立公誠國小,23.7150829,120.538812
94611,縣立久安國小,23.6770504,120.5138664
94612,縣立古坑國(中)小,23.646016,120.566952
94613,縣立東和國小,23.68458,120.568162
94614,縣立永光國小,23.6260789,120.5536185
94615,縣立華山國小,23.5950618,120.5966968
94616,縣立棋山國小,23.6860804,120.6034716
94617,縣立桂林國小,23.6119903,120.6076788
94618,縣立樟湖生態國(中)小,23.6041623,120.6321106
94619,縣立草嶺生態地質國小,23.586331,120.6944356
94620,縣立華南國小,23.5963772,120.5745874
94621,縣立興昌國小,23.6117534,120.5374298
94622,縣立山峰華德福實小,23.6306774,120.6154051
94623,縣立水碓國小,23.6623259,120.5642011
94624,縣立新光國小,24.1594747,120.7069635
94625,縣立林內國小,23.7444056,120.6020284
114617,市立文和實驗小學,22.919336,120.3473046
114618,市立深坑國小,25.0017788,121.6171368
114619,市立新光國小,24.1594747,120.7069635
114620,市立龍崎國小,22.963915,120.359124
114623,市立永康國小,23.0259331,120.2559899
114624,市立大灣國小,23.0056442,120.2670424
114625,市立三村國小,23.0416828,120.2370854
114626,市立西勢國小,23.0187385,120.2753033
114627,市立永康區復興國小,23.001268,120.239391
114628,市立龍潭國小,23.0334677,120.2677841
114629,市立大橋國小,25.0640328,121.5125477
114630,市立新化國小,23.0375291,120.3106667
114631,市立那拔國小,23.068485,120.3493731
114632,市立口埤實驗小學,23.0250196,120.3486951
114633,市立大新國小,24.145955,120.646959
114635,市立山上國小,23.1007374,120.3551709
114636,市立玉井國小,23.1214733,120.4591112
114637,市立層林國小,23.0778994,120.4295119
114638,市立楠西國小,23.1741592,120.4849041
114639,市立南化國小,23.0445131,120.4701373
114640,市立北寮國小,23.0762392,120.4945321
114641,市立西埔國小,23.0460112,120.4459348
114642,市立玉山國小,23.0745448,120.5189747
114643,市立瑞峰國小,24.1686556,120.5737781
114644,市立左鎮國小,23.0556609,120.4038924
114646,市立光榮實驗小學,23.0643112,120.3891516
114647,市立善化國小,23.1357416,120.288909
114648,市立茄拔國小,23.1381223,120.3246318
114649,市立善化區大同國小,23.1564574,120.3076926
114650,市立大成國小,24.0912033,120.5475412
114651,市立陽明國小,22.6453753,120.3352503
114652,市立善糖國小,23.1531937,120.2883402
114653,市立小新國小,23.1246916,120.310552
114654,市立新市國小,23.0790019,120.2955476
114655,市立大社國小,22.7300781,120.3457389
114656,市立安定國小,23.1228575,120.2463276
114657,市立南安國小,23.0981728,120.2249417
114658,市立安定區南興國小,23.0806215,120.218523
114659,市立麻豆國小,23.1859149,120.2529205
114660,市立培文國小,23.1780452,120.2436425
114661,市立文正國小,23.1879742,120.2660243
114662,市立大山國小,23.1910682,120.2205287
114663,市立安業國小,23.1602698,120.2466662
114664,市立北勢國小,24.2169352,120.5715381
134659,縣立佳佐國小,22.5716642,120.5955033
134661,縣立赤山國小,22.5917921,120.61431
134662,縣立內埔國小,22.610098,120.5656377
134664,縣立僑智國小,22.594345,120.556629
134665,縣立崇文國小,22.6669074,120.6000613
134666,縣立新生國小,25.0296774,121.5332977
134667,縣立榮華國小,22.660784,120.564321
134668,縣立黎明國小,24.7519701,121.7642722
134669,縣立隘寮國小,22.7026175,120.6360982
134670,縣立泰安國小,22.6307804,120.5941052
134671,縣立東勢國小,24.2582831,120.8296457
134672,縣立豐田國小,24.3246182,120.8235766
134673,縣立富田國小,22.6158382,120.5400221
134674,縣立竹田國小,22.5830306,120.5435663
134675,縣立西勢國小,23.0187385,120.2753033
134676,縣立大明國小,24.2285783,120.6433435
134677,縣立新埤國小,22.4706497,120.5516021
134678,縣立大成國小,24.0912033,120.5475412
134679,縣立萬隆國小,22.5082056,120.5875335
134680,縣立餉潭國小,22.475525,120.610406
134681,縣立枋寮國小,24.8368194,121.0516139
134682,縣立僑德國小,22.3630062,120.6003922
134683,縣立建興國小,22.3865996,120.6018772
134684,縣立東海國小,22.7525472,121.1401512
134686,縣立東港國小,22.4646486,120.4506775
134687,縣立東隆國小,22.4646486,120.4506775
134688,縣立海濱國小,22.4646865,120.442588
134689,縣立以栗國小,22.4626446,120.4613342
134690,縣立大潭國小,22.4563429,120.495721
134691,縣立新園國小,22.7650799,121.0627123
134692,縣立仙吉國小,22.544125,120.461349
134693,縣立烏龍國小,22.487819,120.458046
134694,縣立港西國小,25.1365059,121.740201
134695,縣立鹽洲國小,22.4880525,120.440264
134696,縣立琉球國小,22.3370729,120.3685013
134697,縣立天南國小,22.330323,120.363317
134698,縣立全德國小,22.3459217,120.3693545
134699,縣立白沙國小,24.047521,120.5451958
134700,縣立崁頂國小,22.513575,120.5119779
134701,縣立港東國小,22.5089317,120.4823944
134702,縣立力社國小,22.5387314,120.5090177
134703,縣立林邊國小,22.4324771,120.5184162
134704,縣立仁和國小,24.8967059,121.2776433
134705,縣立竹林國小,24.6886931,121.766069
164609,縣立五德國小,23.5277944,119.5906979
164610,縣立時裡國小,23.52687,119.568359
164611,縣立風櫃國小,23.5401219,119.5451647
164612,縣立虎井國小,23.48589,119.515093
164614,縣立成功國小,25.0856724,121.457378
164615,縣立西溪國小,23.582114,119.6417939
164616,縣立湖西國小,23.9604072,120.4676583
164618,縣立龍門國小,23.565487,119.6687169
164619,縣立隘門國小,23.5645249,119.635537
164620,縣立沙港國小,23.5946533,119.6165763
164621,縣立中屯國小,23.61109,119.6091909
164623,縣立講美國小,23.6324855,119.5967537
164625,縣立赤崁國小,23.6656357,119.5979182
164627,縣立鳥嶼國小,23.6622809,119.6597909
164628,縣立吉貝國小,23.741108,119.614099
164629,縣立後寮國小,23.9205588,120.3415225
164630,縣立合橫國小,23.638381,119.531049
164631,縣立竹灣國小,23.635283,119.5218277
164633,縣立大池國小,23.6137223,119.5130049
164634,縣立池東國小,23.6011531,119.5064228
164636,縣立內垵國小,23.2068615,119.4285193
164637,縣立外垵國小,23.5672796,119.4812743
164638,縣立望安國小,23.360288,119.4971491
164639,縣立將軍國小,23.2152088,120.136466
164641,縣立花嶼國小,23.3999585,119.3227508
164643,縣立七美國小,23.2068615,119.4285193
164644,縣立雙湖國小,23.2128153,119.4284084
164645,縣立文澳國小,23.564528,119.5827395
164646,縣立文光國小,23.541696,120.189052
171306,私立二信高中附設國小部,25.143902,121.771516
171308,私立聖心高中附設國小部,25.1353145,121.7338675
173601,市立中正國小,25.0506621,121.5393708
173602,市立正濱國小,25.1466438,121.7706334
173603,市立忠孝國小,25.0429269,121.5315325
173604,市立和平國小,24.17115,120.8957071
173605,市立八斗國小,25.1387135,121.7977897
173606,市立東信國小,25.1312703,121.7602397
173607,市立中興國小,25.0358446,121.5521443
173608,市立深澳國小,25.1291718,121.7832959
173609,市立月眉國小,23.5201903,120.3515267
173610,市立東光國小,22.6482777,120.3390272
173611,市立仁愛國小,25.0358446,121.5521443
173612,市立信義國小,25.031566,121.563181
173613,市立成功國小,25.0856724,121.457378
14669,市立雙峰國小,24.9513603,121.5754065
34529,市立仁美國中附設華德福國小部,24.9240144,121.184162
44684,縣立東興國小,24.8048308,121.0322829
74631,縣立新庄國小,24.1044444,120.5336111
94626,縣立重興國小,23.764677,120.579452
114665,市立港尾國小,23.205012,120.207288
134706,縣立崎峰國小,22.4259162,120.4942622
173614,市立南榮國小,25.1190551,121.744164
383613,市立明道國小,24.9873333,121.5625578
94627,縣立九芎國小,23.7444056,120.6020284
94628,縣立成功國小,25.0856724,121.457378
94629,縣立林中國小,23.7543081,120.6147445
94630,縣立民生國小,24.0841236,120.5423543
94631,縣立斗南國小,23.680109,120.4792741
94632,縣立大東國小,22.6239648,120.3622831
94633,縣立石龜國小,23.6419268,120.4822778
94634,縣立重光國小,23.6571371,120.5113453
94635,縣立文安國小,23.6916182,120.4804341
94636,縣立僑真國小,23.6675256,120.4748894
94637,縣立莿桐國小,23.7573224,120.4986329
94638,縣立饒平國小,23.7776992,120.5213156
94639,縣立大美國小,23.7371442,120.5140898
94640,縣立六合國小,23.768463,120.563331
94641,縣立僑和國小,23.7631721,120.4927459
94642,縣立育仁國小,24.156812,120.690612
94643,縣立大埤國小,23.6446785,120.4315531
94644,縣立舊庄國小,25.040298,121.6195187
94645,縣立仁和國小,24.8967059,121.2776433
94646,縣立嘉興國小,24.7051821,121.2105623
94647,縣立聯美國小,23.650377,120.399956
94648,縣立虎尾國小,23.7134647,120.4321899
94649,縣立立仁國小,23.7057483,120.4280939
94650,縣立大屯國小,23.7022542,120.3883456
94651,縣立中溪國小,23.7262028,120.4634984
94652,縣立光復國小,24.754525,121.747082
94653,縣立中正國小,24.8365624,121.0190117
94654,縣立平和國小,24.0720502,120.53547
94655,縣立廉使國小,23.7165145,120.4209063
94656,縣立惠來國小,24.164657,120.649071
94657,縣立拯民國小,23.709425,120.407803
94658,縣立安慶國小,23.703096,120.433476
94659,縣立土庫國小,23.6763322,120.3887924
94660,縣立馬光國小,23.7051861,120.3521749
94661,縣立埤腳國小,23.6694985,120.349334
94662,縣立後埔國小,25.0031578,121.4633736
94663,縣立秀潭國小,23.6567751,120.3495773
94664,縣立新庄國小,24.1044444,120.5336111
94665,縣立宏崙國小,23.6868796,120.3488907
94666,縣立褒忠國小,23.7004339,120.3099637
94667,縣立龍巖國小,23.722427,120.307639
94668,縣立復興國小,24.989664,121.501898
94669,縣立潮厝華德福實小,23.7196744,120.3383222
94670,縣立東勢國小,23.6741528,120.2574598
114667,市立紀安國小,23.151131,120.2378924
114668,市立佳里國小,23.1642878,120.1726507
114669,市立佳興國小,23.1896001,120.1919429
114670,市立延平國小,25.0666472,121.5124288
114671,市立塭內國小,23.1253948,120.1652448
114672,市立子龍國小,23.174093,120.201591
114673,市立仁愛國小,25.0358446,121.5521443
114674,市立通興國小,23.143924,120.157699
114675,市立西港國小,23.1228784,120.1994959
114676,市立港東國小,23.1228608,120.2092578
114677,市立西港區成功國小,23.1214944,120.1807278
114678,市立後營國小,23.140121,120.2145768
114680,市立松林國小,24.86971,120.9911206
114681,市立七股國小,23.139372,120.138512
114682,市立後港國小,23.1842219,120.1369173
114683,市立竹橋國小,23.101839,120.1591107
114684,市立三股國小,23.101872,120.116919
114685,市立光復生態實驗小學,23.148821,120.107068
114686,市立篤加國小,23.1597328,120.1348257
114688,市立龍山國小,25.0356648,121.4961552
114689,市立建功國小,24.8006178,120.9991722
114691,市立大文國小,23.1504943,120.1532287
114692,市立樹林國小,24.9898163,121.4180796
114693,市立將軍國小,23.2152088,120.136466
114694,市立漚汪國小,23.198641,120.159502
114695,市立苓和國小,23.2190428,120.1616517
114696,市立鯤鯓國小,23.1884908,120.0885395
114697,市立長平國小,23.218341,120.10679
114699,市立北門國小,24.813708,120.965668
114700,市立蚵寮國小,22.7331559,120.2479599
114701,市立文山國小,24.1493214,120.6153696
114702,市立錦湖國小,25.0711096,121.6106806
114703,市立雙春國小,23.301079,120.125059
114705,市立三慈國小,23.2386056,120.1098764
114706,市立學甲國小,23.2363663,120.175293
114707,市立中洲國小,23.2454889,120.1599642
114708,市立宅港國小,23.2869204,120.2011678
114709,市立頂洲國小,23.2869306,120.2011867
114710,市立東陽國小,23.22876,120.183858
114711,市立下營國小,23.2314709,120.2616162
114712,市立中營國小,23.2137363,120.2764331
114713,市立賀建國小,23.2546066,120.2963385
114714,市立甲中國小,23.2502055,120.2724831
114716,市立東興國小,24.1560468,120.6530707
134707,縣立水利國小,22.4189847,120.5050591
134708,縣立南州國小,23.853154,120.491806
134709,縣立同安國小,25.0218407,121.2979808
134710,縣立溪北國小,22.4952536,120.5110353
134711,縣立佳冬國小,22.421479,120.551877
134712,縣立塭子國小,22.4093947,120.5256152
134713,縣立羌園國小,22.426916,120.526142
134714,縣立昌隆國小,25.0509984,121.4559874
134715,縣立大新國小,24.145955,120.646959
134716,縣立玉光國小,22.426769,120.5646737
134717,縣立恆春國小,22.005843,120.7465053
134718,縣立僑勇國小,22.0087399,120.74378
134720,縣立山海國小,21.983719,120.715535
134721,縣立大光國小,23.0126359,120.2177672
134722,縣立水泉國小,21.9403083,120.7324546
134723,縣立大平國小,22.0234861,120.7209958
134724,縣立墾丁國小,21.9433122,120.8005936
134725,縣立車城國小,22.0749358,120.7150563
134729,縣立滿州國小,22.0202212,120.8384043
134730,縣立長樂國小,22.0750576,120.8288973
134731,縣立永港國小,24.9421332,121.2299599
134735,縣立楓港國小,22.1906401,120.6925393
134736,縣立加祿國小,22.330346,120.620937
134737,縣立地磨兒國小,22.7151403,120.654127
134740,縣立青山國小,23.9448296,120.60237
134741,縣立青葉國小,22.8380165,120.6390228
134742,縣立口社國小,22.7661628,120.6445917
134744,縣立佳義國小,22.6531898,120.630596
134746,縣立北葉國小,22.705515,120.6454869
134748,縣立霧臺國小,22.744821,120.731317
134751,縣立武潭國小,22.5786473,120.6344731
134752,縣立泰武國小,22.606034,120.610658
134753,縣立萬安國小,22.6265806,120.6381833
134754,縣立來義國小,22.5278031,120.64929
134755,縣立望嘉國小,22.463106,120.62231
134756,縣立文樂國小,22.4929811,120.6237423
134757,縣立南和國小,24.4480695,120.7208047
134758,縣立古樓國小,22.527769,120.626997
134759,縣立春日國小,23.4523213,121.392933
134760,縣立力里國小,22.4277717,120.6284388
134761,縣立古華國小,22.3610376,120.6259221
134762,縣立楓林國小,22.1995005,120.7065073
134763,縣立丹路國小,22.2033133,120.7512782
134764,縣立內獅國小,22.3045544,120.6426991
173616,市立安樂國小,25.1318199,121.7308276
173617,市立西定國小,25.1365046,121.7318292
173618,市立武崙國小,25.1389707,121.7061312
173619,市立中和國小,24.9999388,121.5015935
173620,市立仙洞國小,25.1472079,121.7471022
173621,市立中山國小,25.0635936,121.5260193
173622,市立港西國小,25.1365059,121.740201
173623,市立中華國小,25.149341,121.738735
173625,市立德和國小,25.1548786,121.7306696
173626,市立七堵國小,25.0978817,121.7137156
173627,市立華興國小,24.8741105,121.020391
173628,市立五堵國小,25.0796123,121.6942516
173629,市立堵南國小,25.083334,121.6920705
173630,市立瑪陵國小,25.1101292,121.6887504
173631,市立復興國小,24.989664,121.501898
173632,市立尚仁國小,25.1109348,121.7275213
173633,市立建德國小,24.9766879,121.3149824
173634,市立八堵國小,25.1083778,121.7326845
173635,市立暖暖國小,25.1007571,121.7373537
173636,市立暖江國小,25.1054134,121.7377696
173637,市立碇內國小,25.0984879,121.7540088
173638,市立隆聖國小,25.1562636,121.69349
173639,市立長興國小,22.9904249,120.2605322
173640,市立長樂國小,25.1252597,121.7110157
173641,市立深美國小,25.137193,121.778441
173642,市立暖西國小,25.0929404,121.7355524
180301,國立科學工業園區高中附設國小部,24.777184,121.016432
180601,國立清華大學附小,24.7993532,120.9617019
181601,私立曙光國小,24.812185,120.971485
181603,私立新竹市康橋國(中)小,24.768817,120.966208
183601,市立新竹國小,24.7968093,120.966368
183602,市立北門國小,24.813708,120.965668
183603,市立民富國小,24.8084101,120.9605054
183604,市立東門國小,25.0386417,121.5208757
183605,市立西門國小,24.8026873,120.9599958
183606,市立竹蓮國小,24.7958126,120.973793
183607,市立東園國小,25.022978,121.497962
183608,市立三民國小,24.812821,120.981334
183609,市立龍山國小,25.0356648,121.4961552
183610,市立關東國小,24.7845034,121.0215176
183611,市立載熙國小,24.8194594,120.9623412
183612,市立南寮國小,24.8385578,120.9397378
183613,市立建功國小,24.8006178,120.9991722
183614,市立水源國小,25.1858379,121.4765516
383614,市立萬芳國小,25.0007508,121.5672899
383615,市立力行國小,24.1508403,120.6941378
383616,市立萬興國小,24.9898808,121.5764222
383617,市立萬福國小,25.0048669,121.536754
383618,市立興華國小,24.9999707,121.5590765
383619,市立辛亥國小,25.0064439,121.5591405
393601,市立南港國小,25.0571037,121.6105787
393602,市立舊莊國小,25.040298,121.6195187
393603,市立玉成國小,25.053584,121.594745
393604,市立成德國小,25.0470902,121.5868725
393605,市立胡適國小,25.0420044,121.6174933
393606,市立東新國小,25.056042,121.60211
393607,市立修德國小,25.0657224,121.489854
400144,國立臺灣戲曲學院(國小),25.0819234,121.586525
403601,市立內湖國小,25.0792037,121.5802502
403602,市立碧湖國小,25.0841216,121.5914025
403603,市立潭美國小,25.0591539,121.5810973
403604,市立東湖國小,25.0692279,121.6161245
403605,市立西湖國小,25.0838153,121.5657018
403606,市立康寧國小,25.0799917,121.5948556
403607,市立明湖國小,25.0711096,121.6106806
403608,市立麗山國小,25.0835175,121.572405
403609,市立新湖國小,25.0682258,121.5885493
403610,市立文湖國小,25.0861028,121.5603611
403611,市立大湖國小,25.0876445,121.6011865
403612,市立南湖國小,25.0681686,121.6116241
403613,市立麗湖國小,25.072992,121.601146
411303,私立華興中學附設國小部,25.1050855,121.5385223
413601,市立士林國小,25.0933199,121.5249268
413602,市立士東國小,25.1129302,121.5268279
413603,市立福林國小,25.098198,121.5298544
413604,市立陽明山國小,25.1198928,121.5527652
413605,市立社子國小,25.089958,121.5027273
413606,市立雨聲國小,25.1026251,121.5352657
413607,市立富安國小,25.105838,121.482581
413608,市立劍潭國小,25.0798338,121.5228989
413609,市立溪山實驗國小,25.1195861,121.5796194
413610,市立平等國小,25.1288022,121.5767074
413611,市立百齡國小,25.0863635,121.5178264
413612,市立雙溪國小,25.1062966,121.5645766
413613,市立葫蘆國小,25.0841295,121.5082224
413614,市立雨農國小,25.1052915,121.5299584
413615,市立天母國小,25.1197097,121.5274649
413616,市立文昌國小,25.0994096,121.5213325
14670,市立大豐國小,24.977528,121.5382056
14671,市立中正國小,25.0506621,121.5393708
14672,市立安坑國小,24.961375,121.5141611
14673,市立雙城國小,24.9518624,121.4863663
14674,市立屈尺國小,24.922457,121.5464637
14675,市立龜山國小,24.9931082,121.3393646
14676,市立深坑國小,25.0017788,121.6171368
14677,市立石碇國小,24.9906097,121.6590142
14678,市立和平國小,24.17115,120.8957071
14679,市立永定國小,25.007807,121.6882809
14680,市立雲海國小,24.952989,121.636376
14682,市立坪林國小,24.9360466,121.7107604
14684,市立烏來國(中)小,24.8636951,121.5538264
14685,市立福山國小,22.6837375,120.3173251
14686,市立瑞芳國小,25.1078143,121.8047244
14687,市立義方國小,25.1419691,121.5092916
14688,市立瑞柑國小,25.109892,121.823205
14689,市立瑞濱國小,25.1202103,121.81997
14690,市立九份國小,25.1074286,121.8436296
14691,市立瓜山國小,25.1109184,121.856921
14692,市立濂洞國小,25.1220277,121.8602567
14693,市立猴硐國小,25.0957485,121.8334055
14694,市立瑞亭國小,25.1027989,121.7776044
14695,市立吉慶國小,25.0998429,121.763096
14696,市立鼻頭國小,25.120923,121.919092
14697,市立雙溪國小,25.1062966,121.5645766
14698,市立柑林國小,25.015076,121.8046429
14699,市立上林國小,25.0290149,121.8322412
14700,市立牡丹國小,22.1760868,120.8378709
14702,市立貢寮國小,25.0220718,121.9154877
14703,市立福隆國小,25.0174495,121.9481268
14704,市立澳底國小,25.054924,121.924534
14706,市立和美國小,25.1120466,121.919208
14708,市立福連國小,25.0167967,121.988721
14709,市立平溪國小,25.0273,121.737385
14710,市立菁桐國小,25.0233555,121.7267564
14711,市立十分國小,25.043489,121.77765
14712,市立淡水國小,25.173931,121.4415543
14713,市立育英國小,25.197064,121.444851
14714,市立文化國小,25.1371562,121.4965074
14715,市立天生國小,25.181506,121.424601
14716,市立水源國小,25.1858379,121.4765516
14717,市立興仁國小,24.9678329,121.2623706
14718,市立忠山國小,25.2003326,121.4799342
34601,市立桃園國小,24.9921426,121.310638
34602,市立東門國小,25.0386417,121.5208757
34603,市立中埔國小,23.4230577,120.5239622
34604,市立成功國小,25.0856724,121.457378
34605,市立會稽國小,25.0197392,121.3085833
34606,市立建國國小,24.9549962,121.3468027
34607,市立中山國小,25.0635936,121.5260193
34608,市立文山國小,24.1493214,120.6153696
34609,市立南門國小,25.0352657,121.5090686
34610,市立西門國小,24.8026873,120.9599958
34611,市立龍山國小,25.0356648,121.4961552
34612,市立北門國小,24.813708,120.965668
34613,市立南崁國小,25.0500869,121.3009642
34614,市立公埔國小,25.0719204,121.2855696
34615,市立蘆竹國小,25.0247647,121.2584648
34616,市立大竹國小,25.0247647,121.2584648
34617,市立新興國小,25.1797101,121.4400679
34618,市立外社國小,25.0823433,121.306455
34619,市立頂社國小,25.0779962,121.3201838
34620,市立海湖國小,25.1021589,121.2670362
34621,市立山腳國小,25.0885,121.2876667
34622,市立大華國小,22.6533881,120.3403094
34623,市立新莊國小,25.0369227,121.4561222
34624,市立大園國小,25.0590851,121.2026707
34625,市立圳頭國小,25.0725712,121.2050424
34626,市立內海國小,25.0865872,121.1904699
34627,市立溪海國小,25.046775,121.1867877
34628,市立潮音國小,25.0652237,121.1725909
34629,市立竹圍國小,25.147722,121.4607286
34630,市立菓林國小,25.0775992,121.256065
34631,市立后厝國小,25.0808338,121.2147013
34632,市立沙崙國小,25.0928919,121.2217663
34633,市立埔心國小,23.9529143,120.5453508
34634,市立五權國小,22.620594,120.324286
34635,市立陳康國小,25.0601272,121.2306284
34636,市立龜山國小,24.9931082,121.3393646
34637,市立壽山國小,22.632786,120.280129
34638,市立福源國小,24.9884111,121.3570512
34639,市立大崗國小,25.0523434,121.3575134
34640,市立大埔國小,24.905644,121.366478
34641,市立大坑國小,24.19634,120.747945
34642,市立山頂國小,22.6076638,120.3887955
34643,市立龍壽國小,25.0105623,121.3874846
34644,市立新路國小,24.9955082,121.3362478
44685,縣立安興國小,24.827076,121.032132
51307,私立全人實驗高中附設國小部,24.3058986,120.8622756
54601,縣立建功國小,24.8006178,120.9991722
54602,縣立大同國小,23.4609947,120.2404938
54603,縣立僑育國小,24.5526126,120.8214732
54604,縣立文山國小,24.1493214,120.6153696
54605,縣立啟文國小,24.5729403,120.8273071
54606,縣立新英國小,24.7078012,120.9236723
54607,縣立頭屋國小,24.5757292,120.8505223
54608,縣立明德國小,25.112128,121.5217958
54609,縣立公館國小,24.4994036,120.8277823
54610,縣立五穀國小,24.5209005,120.8222621
54611,縣立福基國小,24.4688254,120.8330762
54612,縣立鶴岡國小,24.534215,120.832316
54614,縣立開礦國小,24.4612495,120.8631449
54615,縣立南河國小,24.5301492,120.85307
54616,縣立銅鑼國小,24.490196,120.7909712
54617,縣立中興國小,24.8666921,121.0284066
54618,縣立九湖國小,24.4732278,120.7768379
54619,縣立新隆國小,24.9528311,121.2183642
54620,縣立興隆國小,24.8168288,121.0154557
54621,縣立文峰國小,24.4650465,120.785439
54622,縣立建中國小,24.4140526,120.7699322
54623,縣立僑成國小,24.4014733,120.765761
54624,縣立育英國小,23.9526956,120.5741008
54625,縣立鯉魚國小,24.343796,120.7667557
54627,縣立苑裡國小,24.4482394,120.6543225
54628,縣立文苑國小,24.4343033,120.6464142
54629,縣立山腳國小,24.4176076,120.6851717
54630,縣立中正國小,24.8365624,121.0190117
54631,縣立藍田國小,24.3889114,120.695467
54632,縣立中山國小,24.0818409,120.5461194
54633,縣立林森國小,24.9453907,121.2264455
54634,縣立蕉埔國小,24.412968,120.7134024
54635,縣立通霄國小,24.490796,120.683299
54636,縣立五福國小,22.589904,120.325942
54637,縣立城中國小,24.4721386,120.7042773
54638,縣立啟明國小,24.5589005,120.7088042
54639,縣立新埔國小,25.0182479,121.306454
54640,縣立烏眉國小,24.4946159,120.7231428
54641,縣立南和國小,24.4480695,120.7208047
54642,縣立坪頂國小,23.9669523,120.7393559
54643,縣立圳頭國小,25.0725712,121.2050424
